<?xml version='1.0' encoding='UTF-8'?>
<kml xmlns="http://earth.google.com/kml/2.2">
	<Document>
		<name>Number of crimes close to schools in Chicago, in 2014</name>
		<Placemark>
			<styleUrl>#icon-4</styleUrl>
			<name>ACE TECHNICAL CHTR HS (5410 S State St)</name>
			<description><![CDATA[366 crimes nearby (in 2014)]]></description>
			<Point>
				<coordinates>-87.6258490371,41.796121509,0.0</coordinates>
			</Point>
		</Placemark>
		<Placemark>
			<styleUrl>#icon-3</styleUrl>
			<name>ADDAMS (10810 S Avenue H)</name>
			<description><![CDATA[105 crimes nearby (in 2014)]]></description>
			<Point>
				<coordinates>-87.5329760419,41.6987387993,0.0</coordinates>
			</Point>
		</Placemark>
		<Placemark>
			<styleUrl>#icon-4</styleUrl>
			<name>AGASSIZ (2851 N Seminary Ave)</name>
			<description><![CDATA[297 crimes nearby (in 2014)]]></description>
			<Point>
				<coordinates>-87.6562286679,41.9341262972,0.0</coordinates>
			</Point>
		</Placemark>
		<Placemark>
			<styleUrl>#icon-4</styleUrl>
			<name>AIR FORCE HS (3630 S Wells St)</name>
			<description><![CDATA[264 crimes nearby (in 2014)]]></description>
			<Point>
				<coordinates>-87.6327569828,41.8281453217,0.0</coordinates>
			</Point>
		</Placemark>
		<Placemark>
			<styleUrl>#icon-0</styleUrl>
			<name>ALBANY PARK (4929 N Sawyer Ave)</name>
			<description><![CDATA[24 crimes nearby (in 2014)]]></description>
			<Point>
				<coordinates>-87.7106087883,41.971504443,0.0</coordinates>
			</Point>
		</Placemark>
		<Placemark>
			<styleUrl>#icon-5</styleUrl>
			<name>ALCOTT ES (2625 N Orchard St)</name>
			<description><![CDATA[411 crimes nearby (in 2014)]]></description>
			<Point>
				<coordinates>-87.6464131369,41.9298498517,0.0</coordinates>
			</Point>
		</Placemark>
		<Placemark>
			<styleUrl>#icon-3</styleUrl>
			<name>ALCOTT PREP HS (2957 N Hoyne Ave)</name>
			<description><![CDATA[106 crimes nearby (in 2014)]]></description>
			<Point>
				<coordinates>-87.6805620129,41.9357945554,0.0</coordinates>
			</Point>
		</Placemark>
		<Placemark>
			<styleUrl>#icon-4</styleUrl>
			<name>ALDRIDGE (630 E 131st St)</name>
			<description><![CDATA[364 crimes nearby (in 2014)]]></description>
			<Point>
				<coordinates>-87.6064738472,41.6574049695,0.0</coordinates>
			</Point>
		</Placemark>
		<Placemark>
			<styleUrl>#icon-1</styleUrl>
			<name>AMANDLA CHTR HS (6800 S Stewart Ave)</name>
			<description><![CDATA[35 crimes nearby (in 2014)]]></description>
			<Point>
				<coordinates>-87.6354715693,41.770802254,0.0</coordinates>
			</Point>
		</Placemark>
		<Placemark>
			<styleUrl>#icon-3</styleUrl>
			<name>AMUNDSEN HS (5110 N Damen Ave)</name>
			<description><![CDATA[109 crimes nearby (in 2014)]]></description>
			<Point>
				<coordinates>-87.6794842151,41.9750672561,0.0</coordinates>
			</Point>
		</Placemark>
		<Placemark>
			<styleUrl>#icon-3</styleUrl>
			<name>ARIEL (1119 E 46th St)</name>
			<description><![CDATA[177 crimes nearby (in 2014)]]></description>
			<Point>
				<coordinates>-87.5975029314,41.8111734613,0.0</coordinates>
			</Point>
		</Placemark>
		<Placemark>
			<styleUrl>#icon-4</styleUrl>
			<name>ARMOUR (950 W 33rd Pl)</name>
			<description><![CDATA[294 crimes nearby (in 2014)]]></description>
			<Point>
				<coordinates>-87.6506531559,41.833853909,0.0</coordinates>
			</Point>
		</Placemark>
		<Placemark>
			<styleUrl>#icon-3</styleUrl>
			<name>ARMSTRONG G (2110 W Greenleaf Ave)</name>
			<description><![CDATA[164 crimes nearby (in 2014)]]></description>
			<Point>
				<coordinates>-87.6844418272,42.0101499835,0.0</coordinates>
			</Point>
		</Placemark>
		<Placemark>
			<styleUrl>#icon-2</styleUrl>
			<name>ASHBURN (8300 S St Louis Ave)</name>
			<description><![CDATA[59 crimes nearby (in 2014)]]></description>
			<Point>
				<coordinates>-87.7096096819,41.7423505663,0.0</coordinates>
			</Point>
		</Placemark>
		<Placemark>
			<styleUrl>#icon-4</styleUrl>
			<name>ASHE (8505 S Ingleside Ave)</name>
			<description><![CDATA[294 crimes nearby (in 2014)]]></description>
			<Point>
				<coordinates>-87.6011744082,41.7401837905,0.0</coordinates>
			</Point>
		</Placemark>
		<Placemark>
			<styleUrl>#icon-3</styleUrl>
			<name>ASIAN HUMAN SERVICES CHTR  PASSAGES (1643 W Bryn Mawr Ave)</name>
			<description><![CDATA[127 crimes nearby (in 2014)]]></description>
			<Point>
				<coordinates>-87.6711604196,41.9833714355,0.0</coordinates>
			</Point>
		</Placemark>
		<Placemark>
			<styleUrl>#icon-3</styleUrl>
			<name>ASPIRA CHTR  EARLY COLLEGE HS (3986 W Barry Ave)</name>
			<description><![CDATA[178 crimes nearby (in 2014)]]></description>
			<Point>
				<coordinates>-87.7271371545,41.9372961215,0.0</coordinates>
			</Point>
		</Placemark>
		<Placemark>
			<styleUrl>#icon-4</styleUrl>
			<name>ASPIRA CHTR  HAUGAN (3729 W Leland Ave)</name>
			<description><![CDATA[236 crimes nearby (in 2014)]]></description>
			<Point>
				<coordinates>-87.7218246656,41.9664056672,0.0</coordinates>
			</Point>
		</Placemark>
		<Placemark>
			<styleUrl>#icon-3</styleUrl>
			<name>ASPIRA CHTR  RAMIREZ HS (1711 N California Ave)</name>
			<description><![CDATA[139 crimes nearby (in 2014)]]></description>
			<Point>
				<coordinates>-87.6955218301,41.9124976066,0.0</coordinates>
			</Point>
		</Placemark>
		<Placemark>
			<styleUrl>#icon-4</styleUrl>
			<name>ATTUCKS (5055 S State St)</name>
			<description><![CDATA[221 crimes nearby (in 2014)]]></description>
			<Point>
				<coordinates>-87.6257833861,41.8021126059,0.0</coordinates>
			</Point>
		</Placemark>
		<Placemark>
			<styleUrl>#icon-3</styleUrl>
			<name>AUDUBON (3500 N Hoyne Ave)</name>
			<description><![CDATA[125 crimes nearby (in 2014)]]></description>
			<Point>
				<coordinates>-87.6810410533,41.9450622241,0.0</coordinates>
			</Point>
		</Placemark>
		<Placemark>
			<styleUrl>#icon-3</styleUrl>
			<name>AUSTIN BUS  ENTRP HS (231 N Pine Ave)</name>
			<description><![CDATA[192 crimes nearby (in 2014)]]></description>
			<Point>
				<coordinates>-87.7618910169,41.8842046712,0.0</coordinates>
			</Point>
		</Placemark>
		<Placemark>
			<styleUrl>#icon-3</styleUrl>
			<name>AUSTIN POLY HS (231 N Pine Ave)</name>
			<description><![CDATA[109 crimes nearby (in 2014)]]></description>
			<Point>
				<coordinates>-87.7619089499,41.8851229432,0.0</coordinates>
			</Point>
		</Placemark>
		<Placemark>
			<styleUrl>#icon-4</styleUrl>
			<name>AVALON PARK (8045 S Kenwood Ave)</name>
			<description><![CDATA[311 crimes nearby (in 2014)]]></description>
			<Point>
				<coordinates>-87.5916538107,41.7482469935,0.0</coordinates>
			</Point>
		</Placemark>
		<Placemark>
			<styleUrl>#icon-2</styleUrl>
			<name>AZUELA (4707 W Marquette Rd)</name>
			<description><![CDATA[68 crimes nearby (in 2014)]]></description>
			<Point>
				<coordinates>-87.7399202335,41.7710790721,0.0</coordinates>
			</Point>
		</Placemark>
		<Placemark>
			<styleUrl>#icon-3</styleUrl>
			<name>BACK OF THE YARDS HS (2111 W 47th St)</name>
			<description><![CDATA[115 crimes nearby (in 2014)]]></description>
			<Point>
				<coordinates>-87.6775413678,41.8084125427,0.0</coordinates>
			</Point>
		</Placemark>
		<Placemark>
			<styleUrl>#icon-5</styleUrl>
			<name>BANNER ACADEMY WEST HS (5035 W North Ave)</name>
			<description><![CDATA[431 crimes nearby (in 2014)]]></description>
			<Point>
				<coordinates>-87.7523911674,41.9094619357,0.0</coordinates>
			</Point>
		</Placemark>
		<Placemark>
			<styleUrl>#icon-2</styleUrl>
			<name>BARNARD (10354 S Charles St)</name>
			<description><![CDATA[58 crimes nearby (in 2014)]]></description>
			<Point>
				<coordinates>-87.6580742242,41.7051310108,0.0</coordinates>
			</Point>
		</Placemark>
		<Placemark>
			<styleUrl>#icon-4</styleUrl>
			<name>BARRY (2828 N Kilbourn Ave)</name>
			<description><![CDATA[325 crimes nearby (in 2014)]]></description>
			<Point>
				<coordinates>-87.7393883513,41.9325105826,0.0</coordinates>
			</Point>
		</Placemark>
		<Placemark>
			<styleUrl>#icon-4</styleUrl>
			<name>BARTON (7650 S Wolcott Ave)</name>
			<description><![CDATA[260 crimes nearby (in 2014)]]></description>
			<Point>
				<coordinates>-87.6709271289,41.7541938496,0.0</coordinates>
			</Point>
		</Placemark>
		<Placemark>
			<styleUrl>#icon-4</styleUrl>
			<name>BASS (1140 W 66th St)</name>
			<description><![CDATA[387 crimes nearby (in 2014)]]></description>
			<Point>
				<coordinates>-87.6535324197,41.77424645,0.0</coordinates>
			</Point>
		</Placemark>
		<Placemark>
			<styleUrl>#icon-3</styleUrl>
			<name>BATEMAN (4220 N Richmond St)</name>
			<description><![CDATA[152 crimes nearby (in 2014)]]></description>
			<Point>
				<coordinates>-87.7021509622,41.9582198384,0.0</coordinates>
			</Point>
		</Placemark>
		<Placemark>
			<styleUrl>#icon-1</styleUrl>
			<name>BEARD (6445 W Strong St)</name>
			<description><![CDATA[38 crimes nearby (in 2014)]]></description>
			<Point>
				<coordinates>-87.7896303313,41.9701248819,0.0</coordinates>
			</Point>
		</Placemark>
		<Placemark>
			<styleUrl>#icon-2</styleUrl>
			<name>BEASLEY (5255 S State St)</name>
			<description><![CDATA[92 crimes nearby (in 2014)]]></description>
			<Point>
				<coordinates>-87.6256915787,41.7984649593,0.0</coordinates>
			</Point>
		</Placemark>
		<Placemark>
			<styleUrl>#icon-2</styleUrl>
			<name>BEAUBIEN (5025 N Laramie Ave)</name>
			<description><![CDATA[88 crimes nearby (in 2014)]]></description>
			<Point>
				<coordinates>-87.7575650395,41.9723939442,0.0</coordinates>
			</Point>
		</Placemark>
		<Placemark>
			<styleUrl>#icon-3</styleUrl>
			<name>BEETHOVEN (25 W 47th St)</name>
			<description><![CDATA[171 crimes nearby (in 2014)]]></description>
			<Point>
				<coordinates>-87.6271368053,41.809134757,0.0</coordinates>
			</Point>
		</Placemark>
		<Placemark>
			<styleUrl>#icon-5</styleUrl>
			<name>BEIDLER (3151 W Walnut St)</name>
			<description><![CDATA[422 crimes nearby (in 2014)]]></description>
			<Point>
				<coordinates>-87.7058548125,41.8853210395,0.0</coordinates>
			</Point>
		</Placemark>
		<Placemark>
			<styleUrl>#icon-3</styleUrl>
			<name>BELDING (4257 N Tripp Ave)</name>
			<description><![CDATA[122 crimes nearby (in 2014)]]></description>
			<Point>
				<coordinates>-87.7340197291,41.9589384932,0.0</coordinates>
			</Point>
		</Placemark>
		<Placemark>
			<styleUrl>#icon-3</styleUrl>
			<name>BELL (3730 N Oakley Ave)</name>
			<description><![CDATA[132 crimes nearby (in 2014)]]></description>
			<Point>
				<coordinates>-87.6860182445,41.9495297981,0.0</coordinates>
			</Point>
		</Placemark>
		<Placemark>
			<styleUrl>#icon-3</styleUrl>
			<name>BELMONTCRAGIN (5252 W Palmer St)</name>
			<description><![CDATA[131 crimes nearby (in 2014)]]></description>
			<Point>
				<coordinates>-87.7568429035,41.9201500461,0.0</coordinates>
			</Point>
		</Placemark>
		<Placemark>
			<styleUrl>#icon-4</styleUrl>
			<name>BENNETT (10115 S Prairie Ave)</name>
			<description><![CDATA[269 crimes nearby (in 2014)]]></description>
			<Point>
				<coordinates>-87.6173904557,41.7104349487,0.0</coordinates>
			</Point>
		</Placemark>
		<Placemark>
			<styleUrl>#icon-2</styleUrl>
			<name>BLACK (9101 S Euclid Ave)</name>
			<description><![CDATA[94 crimes nearby (in 2014)]]></description>
			<Point>
				<coordinates>-87.5766429513,41.7296923608,0.0</coordinates>
			</Point>
		</Placemark>
		<Placemark>
			<styleUrl>#icon-3</styleUrl>
			<name>BLAINE (1420 W Grace St)</name>
			<description><![CDATA[159 crimes nearby (in 2014)]]></description>
			<Point>
				<coordinates>-87.6649678443,41.9507805178,0.0</coordinates>
			</Point>
		</Placemark>
		<Placemark>
			<styleUrl>#icon-2</styleUrl>
			<name>BLAIR (6751 W 63rd Pl)</name>
			<description><![CDATA[71 crimes nearby (in 2014)]]></description>
			<Point>
				<coordinates>-87.7906044249,41.7765562692,0.0</coordinates>
			</Point>
		</Placemark>
		<Placemark>
			<styleUrl>#icon-3</styleUrl>
			<name>BOGAN HS (3939 W 79th St)</name>
			<description><![CDATA[130 crimes nearby (in 2014)]]></description>
			<Point>
				<coordinates>-87.7210974458,41.7493756091,0.0</coordinates>
			</Point>
		</Placemark>
		<Placemark>
			<styleUrl>#icon-4</styleUrl>
			<name>BOND (7050 S May St)</name>
			<description><![CDATA[331 crimes nearby (in 2014)]]></description>
			<Point>
				<coordinates>-87.6530177864,41.7653605657,0.0</coordinates>
			</Point>
		</Placemark>
		<Placemark>
			<styleUrl>#icon-3</styleUrl>
			<name>BOONE (6710 N Washtenaw Ave)</name>
			<description><![CDATA[132 crimes nearby (in 2014)]]></description>
			<Point>
				<coordinates>-87.697462822,42.0034116068,0.0</coordinates>
			</Point>
		</Placemark>
		<Placemark>
			<styleUrl>#icon-4</styleUrl>
			<name>BOUCHET (7355 S Jeffery Blvd)</name>
			<description><![CDATA[339 crimes nearby (in 2014)]]></description>
			<Point>
				<coordinates>-87.5760748577,41.7608474801,0.0</coordinates>
			</Point>
		</Placemark>
		<Placemark>
			<styleUrl>#icon-4</styleUrl>
			<name>BOWEN HS (2710 E 89th St)</name>
			<description><![CDATA[202 crimes nearby (in 2014)]]></description>
			<Point>
				<coordinates>-87.557550034,41.73462672,0.0</coordinates>
			</Point>
		</Placemark>
		<Placemark>
			<styleUrl>#icon-5</styleUrl>
			<name>BRADWELL (7736 S Burnham Ave)</name>
			<description><![CDATA[664 crimes nearby (in 2014)]]></description>
			<Point>
				<coordinates>-87.5571419705,41.7543651313,0.0</coordinates>
			</Point>
		</Placemark>
		<Placemark>
			<styleUrl>#icon-4</styleUrl>
			<name>BRENNEMANN (4251 N Clarendon Ave)</name>
			<description><![CDATA[255 crimes nearby (in 2014)]]></description>
			<Point>
				<coordinates>-87.6497491648,41.9599841547,0.0</coordinates>
			</Point>
		</Placemark>
		<Placemark>
			<styleUrl>#icon-3</styleUrl>
			<name>BRENTANO (2723 N Fairfield Ave)</name>
			<description><![CDATA[181 crimes nearby (in 2014)]]></description>
			<Point>
				<coordinates>-87.6962941984,41.9309660956,0.0</coordinates>
			</Point>
		</Placemark>
		<Placemark>
			<styleUrl>#icon-2</styleUrl>
			<name>BRIDGE (3800 N New England Ave)</name>
			<description><![CDATA[87 crimes nearby (in 2014)]]></description>
			<Point>
				<coordinates>-87.79866892,41.9491143858,0.0</coordinates>
			</Point>
		</Placemark>
		<Placemark>
			<styleUrl>#icon-4</styleUrl>
			<name>BRIGHT (10740 S Calhoun Ave)</name>
			<description><![CDATA[257 crimes nearby (in 2014)]]></description>
			<Point>
				<coordinates>-87.5620842294,41.6997262208,0.0</coordinates>
			</Point>
		</Placemark>
		<Placemark>
			<styleUrl>#icon-3</styleUrl>
			<name>BRIGHTON PARK (3825 S Washtenaw Ave)</name>
			<description><![CDATA[140 crimes nearby (in 2014)]]></description>
			<Point>
				<coordinates>-87.6920769295,41.8238999999,0.0</coordinates>
			</Point>
		</Placemark>
		<Placemark>
			<styleUrl>#icon-1</styleUrl>
			<name>BRONZEVILLE HS (4934 S Wabash Ave)</name>
			<description><![CDATA[26 crimes nearby (in 2014)]]></description>
			<Point>
				<coordinates>-87.6250044685,41.8052041698,0.0</coordinates>
			</Point>
		</Placemark>
		<Placemark>
			<styleUrl>#icon-4</styleUrl>
			<name>BRONZEVILLE LIGHTHOUSE CHTR (8 W Root St)</name>
			<description><![CDATA[252 crimes nearby (in 2014)]]></description>
			<Point>
				<coordinates>-87.6266218015,41.8192766103,0.0</coordinates>
			</Point>
		</Placemark>
		<Placemark>
			<styleUrl>#icon-4</styleUrl>
			<name>BROOKS HS (250 E 111th St)</name>
			<description><![CDATA[378 crimes nearby (in 2014)]]></description>
			<Point>
				<coordinates>-87.616352607,41.6927625279,0.0</coordinates>
			</Point>
		</Placemark>
		<Placemark>
			<styleUrl>#icon-4</styleUrl>
			<name>BROWN R (12607 S Union Ave)</name>
			<description><![CDATA[254 crimes nearby (in 2014)]]></description>
			<Point>
				<coordinates>-87.638957725,41.6648733493,0.0</coordinates>
			</Point>
		</Placemark>
		<Placemark>
			<styleUrl>#icon-3</styleUrl>
			<name>BROWN W (54 N Hermitage Ave)</name>
			<description><![CDATA[128 crimes nearby (in 2014)]]></description>
			<Point>
				<coordinates>-87.6706823911,41.8829967838,0.0</coordinates>
			</Point>
		</Placemark>
		<Placemark>
			<styleUrl>#icon-5</styleUrl>
			<name>BROWNELL (6741 S Michigan Ave)</name>
			<description><![CDATA[458 crimes nearby (in 2014)]]></description>
			<Point>
				<coordinates>-87.6217459686,41.7716203591,0.0</coordinates>
			</Point>
		</Placemark>
		<Placemark>
			<styleUrl>#icon-5</styleUrl>
			<name>BRUNSON (932 N Central Ave)</name>
			<description><![CDATA[519 crimes nearby (in 2014)]]></description>
			<Point>
				<coordinates>-87.7656056579,41.8976625712,0.0</coordinates>
			</Point>
		</Placemark>
		<Placemark>
			<styleUrl>#icon-4</styleUrl>
			<name>BUDLONG (2701 W Foster Ave)</name>
			<description><![CDATA[234 crimes nearby (in 2014)]]></description>
			<Point>
				<coordinates>-87.6965560322,41.9757543298,0.0</coordinates>
			</Point>
		</Placemark>
		<Placemark>
			<styleUrl>#icon-2</styleUrl>
			<name>BURBANK (2035 N Mobile Ave)</name>
			<description><![CDATA[54 crimes nearby (in 2014)]]></description>
			<Point>
				<coordinates>-87.7826995704,41.917598137,0.0</coordinates>
			</Point>
		</Placemark>
		<Placemark>
			<styleUrl>#icon-4</styleUrl>
			<name>BURKE (5356 S King Dr)</name>
			<description><![CDATA[250 crimes nearby (in 2014)]]></description>
			<Point>
				<coordinates>-87.6161405241,41.7967595632,0.0</coordinates>
			</Point>
		</Placemark>
		<Placemark>
			<styleUrl>#icon-3</styleUrl>
			<name>BURLEY (1630 W Barry Ave)</name>
			<description><![CDATA[190 crimes nearby (in 2014)]]></description>
			<Point>
				<coordinates>-87.6698531236,41.9379374733,0.0</coordinates>
			</Point>
		</Placemark>
		<Placemark>
			<styleUrl>#icon-4</styleUrl>
			<name>BURNHAM (9928 S Crandon Ave)</name>
			<description><![CDATA[243 crimes nearby (in 2014)]]></description>
			<Point>
				<coordinates>-87.5671305914,41.7144020619,0.0</coordinates>
			</Point>
		</Placemark>
		<Placemark>
			<styleUrl>#icon-4</styleUrl>
			<name>BURNSIDE (650 E 91st Pl)</name>
			<description><![CDATA[208 crimes nearby (in 2014)]]></description>
			<Point>
				<coordinates>-87.6074353215,41.7284806377,0.0</coordinates>
			</Point>
		</Placemark>
		<Placemark>
			<styleUrl>#icon-3</styleUrl>
			<name>BURR (1621 W Wabansia Ave)</name>
			<description><![CDATA[180 crimes nearby (in 2014)]]></description>
			<Point>
				<coordinates>-87.668660604,41.9123579075,0.0</coordinates>
			</Point>
		</Placemark>
		<Placemark>
			<styleUrl>#icon-3</styleUrl>
			<name>BURROUGHS (3542 S Washtenaw Ave)</name>
			<description><![CDATA[121 crimes nearby (in 2014)]]></description>
			<Point>
				<coordinates>-87.6924566287,41.8288679067,0.0</coordinates>
			</Point>
		</Placemark>
		<Placemark>
			<styleUrl>#icon-2</styleUrl>
			<name>BYRNE (5329 S Oak Park Ave)</name>
			<description><![CDATA[75 crimes nearby (in 2014)]]></description>
			<Point>
				<coordinates>-87.7915444827,41.7950309643,0.0</coordinates>
			</Point>
		</Placemark>
		<Placemark>
			<styleUrl>#icon-4</styleUrl>
			<name>CALDWELL (8546 S Cregier Ave)</name>
			<description><![CDATA[213 crimes nearby (in 2014)]]></description>
			<Point>
				<coordinates>-87.5807290277,41.7392263547,0.0</coordinates>
			</Point>
		</Placemark>
		<Placemark>
			<styleUrl>#icon-2</styleUrl>
			<name>CALMECA (3456 W 38th St)</name>
			<description><![CDATA[68 crimes nearby (in 2014)]]></description>
			<Point>
				<coordinates>-87.7116536402,41.8243773269,0.0</coordinates>
			</Point>
		</Placemark>
		<Placemark>
			<styleUrl>#icon-4</styleUrl>
			<name>CAMELOT SAFE  GARFIELD PARK (241 N. Kolmar Ave)</name>
			<description><![CDATA[371 crimes nearby (in 2014)]]></description>
			<Point>
				<coordinates>-87.7400596623,41.8843768715,0.0</coordinates>
			</Point>
		</Placemark>
		<Placemark>
			<styleUrl>#icon-5</styleUrl>
			<name>CAMELOT SAFE ACADEMY (7877 S Coles Ave)</name>
			<description><![CDATA[550 crimes nearby (in 2014)]]></description>
			<Point>
				<coordinates>-87.550199725,41.752698122,0.0</coordinates>
			</Point>
		</Placemark>
		<Placemark>
			<styleUrl>#icon-5</styleUrl>
			<name>CAMERON (1234 N Monticello Ave)</name>
			<description><![CDATA[455 crimes nearby (in 2014)]]></description>
			<Point>
				<coordinates>-87.7179266353,41.9037921174,0.0</coordinates>
			</Point>
		</Placemark>
		<Placemark>
			<styleUrl>#icon-3</styleUrl>
			<name>CAMRAS (3000 N Mango Ave)</name>
			<description><![CDATA[189 crimes nearby (in 2014)]]></description>
			<Point>
				<coordinates>-87.7701272578,41.934930622,0.0</coordinates>
			</Point>
		</Placemark>
		<Placemark>
			<styleUrl>#icon-2</styleUrl>
			<name>CANTY (3740 N Panama Ave)</name>
			<description><![CDATA[62 crimes nearby (in 2014)]]></description>
			<Point>
				<coordinates>-87.8292957006,41.9480070273,0.0</coordinates>
			</Point>
		</Placemark>
		<Placemark>
			<styleUrl>#icon-4</styleUrl>
			<name>CARDENAS (2345 S Millard Ave)</name>
			<description><![CDATA[240 crimes nearby (in 2014)]]></description>
			<Point>
				<coordinates>-87.7160174071,41.8484877699,0.0</coordinates>
			</Point>
		</Placemark>
		<Placemark>
			<styleUrl>#icon-4</styleUrl>
			<name>CARNEGIE (1414 E 61st Pl)</name>
			<description><![CDATA[221 crimes nearby (in 2014)]]></description>
			<Point>
				<coordinates>-87.5907950088,41.7833683228,0.0</coordinates>
			</Point>
		</Placemark>
		<Placemark>
			<styleUrl>#icon-2</styleUrl>
			<name>CARROLL (2929 W 83rd St)</name>
			<description><![CDATA[74 crimes nearby (in 2014)]]></description>
			<Point>
				<coordinates>-87.6960120755,41.7425166261,0.0</coordinates>
			</Point>
		</Placemark>
		<Placemark>
			<styleUrl>#icon-2</styleUrl>
			<name>CARSON (5516 S Maplewood Ave)</name>
			<description><![CDATA[63 crimes nearby (in 2014)]]></description>
			<Point>
				<coordinates>-87.6877995433,41.7932721435,0.0</coordinates>
			</Point>
		</Placemark>
		<Placemark>
			<styleUrl>#icon-6</styleUrl>
			<name>CARTER (5740 S Michigan Ave)</name>
			<description><![CDATA[810 crimes nearby (in 2014)]]></description>
			<Point>
				<coordinates>-87.6224527522,41.7898279046,0.0</coordinates>
			</Point>
		</Placemark>
		<Placemark>
			<styleUrl>#icon-1</styleUrl>
			<name>CARVER MILITARY (13100 S Doty Ave)</name>
			<description><![CDATA[28 crimes nearby (in 2014)]]></description>
			<Point>
				<coordinates>-87.5906203849,41.6562899508,0.0</coordinates>
			</Point>
		</Placemark>
		<Placemark>
			<styleUrl>#icon-3</styleUrl>
			<name>CARVER G (901 E 133rd Pl)</name>
			<description><![CDATA[118 crimes nearby (in 2014)]]></description>
			<Point>
				<coordinates>-87.5995156323,41.6537021151,0.0</coordinates>
			</Point>
		</Placemark>
		<Placemark>
			<styleUrl>#icon-3</styleUrl>
			<name>CASALS (3501 W Potomac Ave)</name>
			<description><![CDATA[111 crimes nearby (in 2014)]]></description>
			<Point>
				<coordinates>-87.7142336469,41.904502764,0.0</coordinates>
			</Point>
		</Placemark>
		<Placemark>
			<styleUrl>#icon-2</styleUrl>
			<name>CASSELL (11314 S Spaulding Ave)</name>
			<description><![CDATA[52 crimes nearby (in 2014)]]></description>
			<Point>
				<coordinates>-87.7032154885,41.6873470545,0.0</coordinates>
			</Point>
		</Placemark>
		<Placemark>
			<styleUrl>#icon-3</styleUrl>
			<name>CASTELLANOS (2524 S Central Park Ave)</name>
			<description><![CDATA[181 crimes nearby (in 2014)]]></description>
			<Point>
				<coordinates>-87.7149270137,41.8454498785,0.0</coordinates>
			</Point>
		</Placemark>
		<Placemark>
			<styleUrl>#icon-5</styleUrl>
			<name>CATALYST CHTR  CIRCLE ROCK (5608 W Washington Blvd)</name>
			<description><![CDATA[570 crimes nearby (in 2014)]]></description>
			<Point>
				<coordinates>-87.7653219783,41.8823222206,0.0</coordinates>
			</Point>
		</Placemark>
		<Placemark>
			<styleUrl>#icon-4</styleUrl>
			<name>CATALYST CHTR  HOWLAND (1616 S Spaulding Ave)</name>
			<description><![CDATA[203 crimes nearby (in 2014)]]></description>
			<Point>
				<coordinates>-87.7076985188,41.8585532877,0.0</coordinates>
			</Point>
		</Placemark>
		<Placemark>
			<styleUrl>#icon-3</styleUrl>
			<name>CATALYST CHTR  MARIA (6727 S California Ave)</name>
			<description><![CDATA[132 crimes nearby (in 2014)]]></description>
			<Point>
				<coordinates>-87.6930753223,41.7709917182,0.0</coordinates>
			</Point>
		</Placemark>
		<Placemark>
			<styleUrl>#icon-5</styleUrl>
			<name>CATHER (2908 W Washington Blvd)</name>
			<description><![CDATA[497 crimes nearby (in 2014)]]></description>
			<Point>
				<coordinates>-87.6991870086,41.882949924,0.0</coordinates>
			</Point>
		</Placemark>
		<Placemark>
			<styleUrl>#icon-4</styleUrl>
			<name>CHALMERS (2745 W Roosevelt Rd)</name>
			<description><![CDATA[375 crimes nearby (in 2014)]]></description>
			<Point>
				<coordinates>-87.695259369,41.8664352516,0.0</coordinates>
			</Point>
		</Placemark>
		<Placemark>
			<styleUrl>#icon-2</styleUrl>
			<name>CHAPPELL (2135 W Foster Ave)</name>
			<description><![CDATA[74 crimes nearby (in 2014)]]></description>
			<Point>
				<coordinates>-87.6832635916,41.9758943,0.0</coordinates>
			</Point>
		</Placemark>
		<Placemark>
			<styleUrl>#icon-4</styleUrl>
			<name>CHASE (2021 N Point St)</name>
			<description><![CDATA[253 crimes nearby (in 2014)]]></description>
			<Point>
				<coordinates>-87.6945622511,41.9179926524,0.0</coordinates>
			</Point>
		</Placemark>
		<Placemark>
			<styleUrl>#icon-4</styleUrl>
			<name>CHAVEZ (4747 S Marshfield Ave)</name>
			<description><![CDATA[278 crimes nearby (in 2014)]]></description>
			<Point>
				<coordinates>-87.6660369339,41.8071428303,0.0</coordinates>
			</Point>
		</Placemark>
		<Placemark>
			<styleUrl>#icon-2</styleUrl>
			<name>CHGO ACAD HS (3400 N Austin Ave)</name>
			<description><![CDATA[65 crimes nearby (in 2014)]]></description>
			<Point>
				<coordinates>-87.776846566,41.9430544902,0.0</coordinates>
			</Point>
		</Placemark>
		<Placemark>
			<styleUrl>#icon-1</styleUrl>
			<name>CHGO AG HS (3857 W 111th St)</name>
			<description><![CDATA[31 crimes nearby (in 2014)]]></description>
			<Point>
				<coordinates>-87.7177696726,41.6912207413,0.0</coordinates>
			</Point>
		</Placemark>
		<Placemark>
			<styleUrl>#icon-4</styleUrl>
			<name>CHGO ARTS CONTR HS (2714 W Augusta Blvd)</name>
			<description><![CDATA[248 crimes nearby (in 2014)]]></description>
			<Point>
				<coordinates>-87.6949450113,41.8993765727,0.0</coordinates>
			</Point>
		</Placemark>
		<Placemark>
			<styleUrl>#icon-4</styleUrl>
			<name>CHGO MATH  SCI ACAD CHTR HS (7212 N Clark St)</name>
			<description><![CDATA[242 crimes nearby (in 2014)]]></description>
			<Point>
				<coordinates>-87.6748184179,42.0130314891,0.0</coordinates>
			</Point>
		</Placemark>
		<Placemark>
			<styleUrl>#icon-5</styleUrl>
			<name>CHGO MILITARY ACAD HS (3519 S Giles Ave)</name>
			<description><![CDATA[499 crimes nearby (in 2014)]]></description>
			<Point>
				<coordinates>-87.6192155428,41.830554977,0.0</coordinates>
			</Point>
		</Placemark>
		<Placemark>
			<styleUrl>#icon-1</styleUrl>
			<name>CHICAGO ACAD ES (3400 N Austin Ave)</name>
			<description><![CDATA[44 crimes nearby (in 2014)]]></description>
			<Point>
				<coordinates>-87.7781868032,41.9430559189,0.0</coordinates>
			</Point>
		</Placemark>
		<Placemark>
			<styleUrl>#icon-4</styleUrl>
			<name>CHICAGO CHTR COLLEGIATE (11816 S Indiana Ave)</name>
			<description><![CDATA[285 crimes nearby (in 2014)]]></description>
			<Point>
				<coordinates>-87.6179678712,41.6793184419,0.0</coordinates>
			</Point>
		</Placemark>
		<Placemark>
			<styleUrl>#icon-3</styleUrl>
			<name>CHICAGO EXCEL CONTR ACAD (1269 W 111th St)</name>
			<description><![CDATA[183 crimes nearby (in 2014)]]></description>
			<Point>
				<coordinates>-87.6542479426,41.6919533378,0.0</coordinates>
			</Point>
		</Placemark>
		<Placemark>
			<styleUrl>#icon-4</styleUrl>
			<name>CHICAGO TECH ACADEMY (1301 W 14th St)</name>
			<description><![CDATA[267 crimes nearby (in 2014)]]></description>
			<Point>
				<coordinates>-87.6590948034,41.8633014081,0.0</coordinates>
			</Point>
		</Placemark>
		<Placemark>
			<styleUrl>#icon-5</styleUrl>
			<name>CHICAGO VIRTUAL CHTR HS (38 S Peoria St)</name>
			<description><![CDATA[468 crimes nearby (in 2014)]]></description>
			<Point>
				<coordinates>-87.6497724849,41.8805501115,0.0</coordinates>
			</Point>
		</Placemark>
		<Placemark>
			<styleUrl>#icon-4</styleUrl>
			<name>CHICAGO VOCATIONAL HS (2100 E 87th St)</name>
			<description><![CDATA[212 crimes nearby (in 2014)]]></description>
			<Point>
				<coordinates>-87.5732675156,41.7371739334,0.0</coordinates>
			</Point>
		</Placemark>
		<Placemark>
			<styleUrl>#icon-4</styleUrl>
			<name>CHOPIN (2450 W Rice St)</name>
			<description><![CDATA[221 crimes nearby (in 2014)]]></description>
			<Point>
				<coordinates>-87.6889367623,41.8967126884,0.0</coordinates>
			</Point>
		</Placemark>
		<Placemark>
			<styleUrl>#icon-4</styleUrl>
			<name>CHRISTOPHER (5042 S Artesian Ave)</name>
			<description><![CDATA[227 crimes nearby (in 2014)]]></description>
			<Point>
				<coordinates>-87.6856070028,41.8016586237,0.0</coordinates>
			</Point>
		</Placemark>
		<Placemark>
			<styleUrl>#icon-3</styleUrl>
			<name>CHRISTOPHER HOUSE CHTR (5235 W Belden Ave)</name>
			<description><![CDATA[152 crimes nearby (in 2014)]]></description>
			<Point>
				<coordinates>-87.7575215283,41.9221811559,0.0</coordinates>
			</Point>
		</Placemark>
		<Placemark>
			<styleUrl>#icon-3</styleUrl>
			<name>CICS  AVALON  SOUTH SHORE (1501 E 83rd Pl)</name>
			<description><![CDATA[197 crimes nearby (in 2014)]]></description>
			<Point>
				<coordinates>-87.5879276411,41.7431794199,0.0</coordinates>
			</Point>
		</Placemark>
		<Placemark>
			<styleUrl>#icon-4</styleUrl>
			<name>CICS  BASIL (1816 W Garfield Blvd)</name>
			<description><![CDATA[359 crimes nearby (in 2014)]]></description>
			<Point>
				<coordinates>-87.6702426574,41.7940428632,0.0</coordinates>
			</Point>
		</Placemark>
		<Placemark>
			<styleUrl>#icon-3</styleUrl>
			<name>CICS  BUCKTOWN (2235 N Hamilton Ave)</name>
			<description><![CDATA[170 crimes nearby (in 2014)]]></description>
			<Point>
				<coordinates>-87.6813579646,41.9224146293,0.0</coordinates>
			</Point>
		</Placemark>
		<Placemark>
			<styleUrl>#icon-3</styleUrl>
			<name>CICS  CHICAGOQUEST NORTH (1443 N Ogden Ave)</name>
			<description><![CDATA[129 crimes nearby (in 2014)]]></description>
			<Point>
				<coordinates>-87.6455614992,41.907796795,0.0</coordinates>
			</Point>
		</Placemark>
		<Placemark>
			<styleUrl>#icon-4</styleUrl>
			<name>CICS  ELLISON (1817 W 80th St)</name>
			<description><![CDATA[260 crimes nearby (in 2014)]]></description>
			<Point>
				<coordinates>-87.6689796393,41.7483824078,0.0</coordinates>
			</Point>
		</Placemark>
		<Placemark>
			<styleUrl>#icon-2</styleUrl>
			<name>CICS  HAWKINS (801 E 133rd Pl)</name>
			<description><![CDATA[96 crimes nearby (in 2014)]]></description>
			<Point>
				<coordinates>-87.6018732837,41.6531410567,0.0</coordinates>
			</Point>
		</Placemark>
		<Placemark>
			<styleUrl>#icon-3</styleUrl>
			<name>CICS  IRVING PARK (3820 N Spaulding Ave)</name>
			<description><![CDATA[159 crimes nearby (in 2014)]]></description>
			<Point>
				<coordinates>-87.7104924287,41.9508912743,0.0</coordinates>
			</Point>
		</Placemark>
		<Placemark>
			<styleUrl>#icon-4</styleUrl>
			<name>CICS  LLOYD BOND (13300 S Langley Ave)</name>
			<description><![CDATA[202 crimes nearby (in 2014)]]></description>
			<Point>
				<coordinates>-87.6050391022,41.6536634494,0.0</coordinates>
			</Point>
		</Placemark>
		<Placemark>
			<styleUrl>#icon-3</styleUrl>
			<name>CICS  LONGWOOD (1309 W 95th St)</name>
			<description><![CDATA[114 crimes nearby (in 2014)]]></description>
			<Point>
				<coordinates>-87.6557681329,41.7212214323,0.0</coordinates>
			</Point>
		</Placemark>
		<Placemark>
			<styleUrl>#icon-2</styleUrl>
			<name>CICS  LOOMIS (9535 S Loomis St)</name>
			<description><![CDATA[66 crimes nearby (in 2014)]]></description>
			<Point>
				<coordinates>-87.6575610581,41.7202464227,0.0</coordinates>
			</Point>
		</Placemark>
		<Placemark>
			<styleUrl>#icon-1</styleUrl>
			<name>CICS  NORTHTOWN (3900 W Peterson Ave)</name>
			<description><![CDATA[28 crimes nearby (in 2014)]]></description>
			<Point>
				<coordinates>-87.7265042644,41.990245011,0.0</coordinates>
			</Point>
		</Placemark>
		<Placemark>
			<styleUrl>#icon-3</styleUrl>
			<name>CICS  PRAIRIE (11530 S Prairie Ave)</name>
			<description><![CDATA[157 crimes nearby (in 2014)]]></description>
			<Point>
				<coordinates>-87.6168883821,41.6844330381,0.0</coordinates>
			</Point>
		</Placemark>
		<Placemark>
			<styleUrl>#icon-4</styleUrl>
			<name>CICS  WASHINGTON PARK (6105 S Michigan Ave)</name>
			<description><![CDATA[399 crimes nearby (in 2014)]]></description>
			<Point>
				<coordinates>-87.6220684545,41.783616846,0.0</coordinates>
			</Point>
		</Placemark>
		<Placemark>
			<styleUrl>#icon-4</styleUrl>
			<name>CICS  WEST BELDEN (2245 N McVicker Ave)</name>
			<description><![CDATA[287 crimes nearby (in 2014)]]></description>
			<Point>
				<coordinates>-87.7767485391,41.9216874947,0.0</coordinates>
			</Point>
		</Placemark>
		<Placemark>
			<styleUrl>#icon-3</styleUrl>
			<name>CICS  WRIGHTWOOD (8130 S California Ave)</name>
			<description><![CDATA[150 crimes nearby (in 2014)]]></description>
			<Point>
				<coordinates>-87.692614399,41.7453654501,0.0</coordinates>
			</Point>
		</Placemark>
		<Placemark>
			<styleUrl>#icon-5</styleUrl>
			<name>CLAREMONT (2300 W 64th St)</name>
			<description><![CDATA[569 crimes nearby (in 2014)]]></description>
			<Point>
				<coordinates>-87.6810611971,41.7775105073,0.0</coordinates>
			</Point>
		</Placemark>
		<Placemark>
			<styleUrl>#icon-4</styleUrl>
			<name>CLARK HS (5101 W Harrison St)</name>
			<description><![CDATA[254 crimes nearby (in 2014)]]></description>
			<Point>
				<coordinates>-87.7533248719,41.8728850048,0.0</coordinates>
			</Point>
		</Placemark>
		<Placemark>
			<styleUrl>#icon-4</styleUrl>
			<name>CLARK G (1045 S Monitor Ave)</name>
			<description><![CDATA[223 crimes nearby (in 2014)]]></description>
			<Point>
				<coordinates>-87.7704175268,41.8678125675,0.0</coordinates>
			</Point>
		</Placemark>
		<Placemark>
			<styleUrl>#icon-3</styleUrl>
			<name>CLAY (13231 S Burley Ave)</name>
			<description><![CDATA[155 crimes nearby (in 2014)]]></description>
			<Point>
				<coordinates>-87.5446135978,41.654558148,0.0</coordinates>
			</Point>
		</Placemark>
		<Placemark>
			<styleUrl>#icon-3</styleUrl>
			<name>CLEMENTE HS (1147 N Western Ave)</name>
			<description><![CDATA[168 crimes nearby (in 2014)]]></description>
			<Point>
				<coordinates>-87.6869061464,41.9026257912,0.0</coordinates>
			</Point>
		</Placemark>
		<Placemark>
			<styleUrl>#icon-3</styleUrl>
			<name>CLEVELAND (3121 W Byron St)</name>
			<description><![CDATA[196 crimes nearby (in 2014)]]></description>
			<Point>
				<coordinates>-87.7064425256,41.9520421209,0.0</coordinates>
			</Point>
		</Placemark>
		<Placemark>
			<styleUrl>#icon-4</styleUrl>
			<name>CLINTON (6110 N Fairfield Ave)</name>
			<description><![CDATA[311 crimes nearby (in 2014)]]></description>
			<Point>
				<coordinates>-87.6983599546,41.9925413596,0.0</coordinates>
			</Point>
		</Placemark>
		<Placemark>
			<styleUrl>#icon-3</styleUrl>
			<name>CLISSOLD (2350 W 110th Pl)</name>
			<description><![CDATA[118 crimes nearby (in 2014)]]></description>
			<Point>
				<coordinates>-87.6808967872,41.6930260059,0.0</coordinates>
			</Point>
		</Placemark>
		<Placemark>
			<styleUrl>#icon-3</styleUrl>
			<name>COLEMON (1441 W 119th St)</name>
			<description><![CDATA[187 crimes nearby (in 2014)]]></description>
			<Point>
				<coordinates>-87.6581108383,41.6775054462,0.0</coordinates>
			</Point>
		</Placemark>
		<Placemark>
			<styleUrl>#icon-4</styleUrl>
			<name>COLES (8441 S Yates Blvd)</name>
			<description><![CDATA[270 crimes nearby (in 2014)]]></description>
			<Point>
				<coordinates>-87.5659697713,41.7414128065,0.0</coordinates>
			</Point>
		</Placemark>
		<Placemark>
			<styleUrl>#icon-3</styleUrl>
			<name>COLLINS HS (1313 S Sacramento Dr)</name>
			<description><![CDATA[173 crimes nearby (in 2014)]]></description>
			<Point>
				<coordinates>-87.7020415857,41.864148567,0.0</coordinates>
			</Point>
		</Placemark>
		<Placemark>
			<styleUrl>#icon-4</styleUrl>
			<name>COLUMBIA EXPLORERS (4520 S Kedzie Ave)</name>
			<description><![CDATA[204 crimes nearby (in 2014)]]></description>
			<Point>
				<coordinates>-87.7041985906,41.8110686087,0.0</coordinates>
			</Point>
		</Placemark>
		<Placemark>
			<styleUrl>#icon-3</styleUrl>
			<name>COLUMBUS (1003 N Leavitt St)</name>
			<description><![CDATA[164 crimes nearby (in 2014)]]></description>
			<Point>
				<coordinates>-87.6819380494,41.8995657749,0.0</coordinates>
			</Point>
		</Placemark>
		<Placemark>
			<styleUrl>#icon-4</styleUrl>
			<name>COMMUNITY CONTR (1239 S Pulaski Rd)</name>
			<description><![CDATA[241 crimes nearby (in 2014)]]></description>
			<Point>
				<coordinates>-87.7250220202,41.8649522588,0.0</coordinates>
			</Point>
		</Placemark>
		<Placemark>
			<styleUrl>#icon-5</styleUrl>
			<name>COOK (8150 S Bishop St)</name>
			<description><![CDATA[476 crimes nearby (in 2014)]]></description>
			<Point>
				<coordinates>-87.6597745903,41.7452370209,0.0</coordinates>
			</Point>
		</Placemark>
		<Placemark>
			<styleUrl>#icon-3</styleUrl>
			<name>COONLEY (4046 N Leavitt St)</name>
			<description><![CDATA[146 crimes nearby (in 2014)]]></description>
			<Point>
				<coordinates>-87.6837653004,41.9555531942,0.0</coordinates>
			</Point>
		</Placemark>
		<Placemark>
			<styleUrl>#icon-4</styleUrl>
			<name>COOPER (1624 W 19th St)</name>
			<description><![CDATA[211 crimes nearby (in 2014)]]></description>
			<Point>
				<coordinates>-87.6672270843,41.8560311916,0.0</coordinates>
			</Point>
		</Placemark>
		<Placemark>
			<styleUrl>#icon-4</styleUrl>
			<name>CORKERY (2510 S Kildare Ave)</name>
			<description><![CDATA[277 crimes nearby (in 2014)]]></description>
			<Point>
				<coordinates>-87.7311928652,41.8456024217,0.0</coordinates>
			</Point>
		</Placemark>
		<Placemark>
			<styleUrl>#icon-1</styleUrl>
			<name>CORLISS HS (821 E 103rd St)</name>
			<description><![CDATA[50 crimes nearby (in 2014)]]></description>
			<Point>
				<coordinates>-87.6012158766,41.7066596162,0.0</coordinates>
			</Point>
		</Placemark>
		<Placemark>
			<styleUrl>#icon-3</styleUrl>
			<name>COURTENAY (4420 N Beacon St)</name>
			<description><![CDATA[166 crimes nearby (in 2014)]]></description>
			<Point>
				<coordinates>-87.663852963,41.9623077715,0.0</coordinates>
			</Point>
		</Placemark>
		<Placemark>
			<styleUrl>#icon-2</styleUrl>
			<name>CRANE HS (2245 W Jackson Blvd)</name>
			<description><![CDATA[75 crimes nearby (in 2014)]]></description>
			<Point>
				<coordinates>-87.6819731621,41.8769422998,0.0</coordinates>
			</Point>
		</Placemark>
		<Placemark>
			<styleUrl>#icon-3</styleUrl>
			<name>CRANE MEDICAL PREP HS (2245 W Jackson Blvd)</name>
			<description><![CDATA[119 crimes nearby (in 2014)]]></description>
			<Point>
				<coordinates>-87.6833013467,41.8769474432,0.0</coordinates>
			</Point>
		</Placemark>
		<Placemark>
			<styleUrl>#icon-5</styleUrl>
			<name>CROWN (2128 S Saint Louis Ave)</name>
			<description><![CDATA[465 crimes nearby (in 2014)]]></description>
			<Point>
				<coordinates>-87.7124701511,41.8526634872,0.0</coordinates>
			</Point>
		</Placemark>
		<Placemark>
			<styleUrl>#icon-4</styleUrl>
			<name>CUFFE (8324 S Racine Ave)</name>
			<description><![CDATA[245 crimes nearby (in 2014)]]></description>
			<Point>
				<coordinates>-87.6536334476,41.7424516266,0.0</coordinates>
			</Point>
		</Placemark>
		<Placemark>
			<styleUrl>#icon-3</styleUrl>
			<name>CULLEN (10650 S Eberhart Ave)</name>
			<description><![CDATA[184 crimes nearby (in 2014)]]></description>
			<Point>
				<coordinates>-87.6112444583,41.700335141,0.0</coordinates>
			</Point>
		</Placemark>
		<Placemark>
			<styleUrl>#icon-4</styleUrl>
			<name>CURIE HS (4959 S Archer Ave)</name>
			<description><![CDATA[253 crimes nearby (in 2014)]]></description>
			<Point>
				<coordinates>-87.7220416549,41.8030602064,0.0</coordinates>
			</Point>
		</Placemark>
		<Placemark>
			<styleUrl>#icon-4</styleUrl>
			<name>CURTIS (32 E 115th St)</name>
			<description><![CDATA[378 crimes nearby (in 2014)]]></description>
			<Point>
				<coordinates>-87.6216526077,41.6854183995,0.0</coordinates>
			</Point>
		</Placemark>
		<Placemark>
			<styleUrl>#icon-4</styleUrl>
			<name>DALEY (5024 S Wolcott Ave)</name>
			<description><![CDATA[267 crimes nearby (in 2014)]]></description>
			<Point>
				<coordinates>-87.6722064019,41.8023428674,0.0</coordinates>
			</Point>
		</Placemark>
		<Placemark>
			<styleUrl>#icon-4</styleUrl>
			<name>DARWIN (3116 W Belden Ave)</name>
			<description><![CDATA[231 crimes nearby (in 2014)]]></description>
			<Point>
				<coordinates>-87.7054129132,41.9233227169,0.0</coordinates>
			</Point>
		</Placemark>
		<Placemark>
			<styleUrl>#icon-4</styleUrl>
			<name>DAVIS M (6730 S Paulina St)</name>
			<description><![CDATA[349 crimes nearby (in 2014)]]></description>
			<Point>
				<coordinates>-87.6665298837,41.7712211109,0.0</coordinates>
			</Point>
		</Placemark>
		<Placemark>
			<styleUrl>#icon-4</styleUrl>
			<name>DAVIS N (3014 W 39th Pl)</name>
			<description><![CDATA[306 crimes nearby (in 2014)]]></description>
			<Point>
				<coordinates>-87.7002021606,41.8218516141,0.0</coordinates>
			</Point>
		</Placemark>
		<Placemark>
			<styleUrl>#icon-3</styleUrl>
			<name>DAWES (3810 W 81st Pl)</name>
			<description><![CDATA[101 crimes nearby (in 2014)]]></description>
			<Point>
				<coordinates>-87.7173534238,41.7450777512,0.0</coordinates>
			</Point>
		</Placemark>
		<Placemark>
			<styleUrl>#icon-2</styleUrl>
			<name>DECATUR (7030 N Sacramento Ave)</name>
			<description><![CDATA[52 crimes nearby (in 2014)]]></description>
			<Point>
				<coordinates>-87.7046185928,42.0092885566,0.0</coordinates>
			</Point>
		</Placemark>
		<Placemark>
			<styleUrl>#icon-4</styleUrl>
			<name>DENEEN (7240 S Wabash Ave)</name>
			<description><![CDATA[346 crimes nearby (in 2014)]]></description>
			<Point>
				<coordinates>-87.6233445891,41.7624902636,0.0</coordinates>
			</Point>
		</Placemark>
		<Placemark>
			<styleUrl>#icon-5</styleUrl>
			<name>DEPRIEST (139 S Parkside Ave)</name>
			<description><![CDATA[462 crimes nearby (in 2014)]]></description>
			<Point>
				<coordinates>-87.7662975549,41.8779788327,0.0</coordinates>
			</Point>
		</Placemark>
		<Placemark>
			<styleUrl>#icon-3</styleUrl>
			<name>DETT (2131 W Monroe St)</name>
			<description><![CDATA[160 crimes nearby (in 2014)]]></description>
			<Point>
				<coordinates>-87.6803149669,41.8798698204,0.0</coordinates>
			</Point>
		</Placemark>
		<Placemark>
			<styleUrl>#icon-2</styleUrl>
			<name>DEVER (3436 N Osceola Ave)</name>
			<description><![CDATA[87 crimes nearby (in 2014)]]></description>
			<Point>
				<coordinates>-87.8131315249,41.942551669,0.0</coordinates>
			</Point>
		</Placemark>
		<Placemark>
			<styleUrl>#icon-4</styleUrl>
			<name>DEVRY HS (3300 N Campbell Ave)</name>
			<description><![CDATA[208 crimes nearby (in 2014)]]></description>
			<Point>
				<coordinates>-87.6907613918,41.9413876393,0.0</coordinates>
			</Point>
		</Placemark>
		<Placemark>
			<styleUrl>#icon-4</styleUrl>
			<name>DEWEY (5415 S Union Ave)</name>
			<description><![CDATA[210 crimes nearby (in 2014)]]></description>
			<Point>
				<coordinates>-87.6426515781,41.7956456829,0.0</coordinates>
			</Point>
		</Placemark>
		<Placemark>
			<styleUrl>#icon-3</styleUrl>
			<name>DIEGO (1313 N Claremont Ave)</name>
			<description><![CDATA[135 crimes nearby (in 2014)]]></description>
			<Point>
				<coordinates>-87.6857562034,41.9052938529,0.0</coordinates>
			</Point>
		</Placemark>
		<Placemark>
			<styleUrl>#icon-3</styleUrl>
			<name>DIRKSEN (8601 W Foster Ave)</name>
			<description><![CDATA[130 crimes nearby (in 2014)]]></description>
			<Point>
				<coordinates>-87.8410414421,41.9737147769,0.0</coordinates>
			</Point>
		</Placemark>
		<Placemark>
			<styleUrl>#icon-3</styleUrl>
			<name>DISNEY (4140 N Marine Dr)</name>
			<description><![CDATA[110 crimes nearby (in 2014)]]></description>
			<Point>
				<coordinates>-87.6460827438,41.9568161302,0.0</coordinates>
			</Point>
		</Placemark>
		<Placemark>
			<styleUrl>#icon-3</styleUrl>
			<name>DISNEY II ES (3815 N Kedvale Ave)</name>
			<description><![CDATA[142 crimes nearby (in 2014)]]></description>
			<Point>
				<coordinates>-87.7306783758,41.9504605049,0.0</coordinates>
			</Point>
		</Placemark>
		<Placemark>
			<styleUrl>#icon-2</styleUrl>
			<name>DISNEY II MAGNET HS (3900 N Lawndale Ave)</name>
			<description><![CDATA[75 crimes nearby (in 2014)]]></description>
			<Point>
				<coordinates>-87.7213635115,41.9524876689,0.0</coordinates>
			</Point>
		</Placemark>
		<Placemark>
			<styleUrl>#icon-4</styleUrl>
			<name>DIXON (8306 S Saint Lawrence Ave)</name>
			<description><![CDATA[239 crimes nearby (in 2014)]]></description>
			<Point>
				<coordinates>-87.6099788751,41.7436692413,0.0</coordinates>
			</Point>
		</Placemark>
		<Placemark>
			<styleUrl>#icon-0</styleUrl>
			<name>DODGE (431 N Troy St)</name>
			<description><![CDATA[11 crimes nearby (in 2014)]]></description>
			<Point>
				<coordinates>-87.7037937354,41.8891841747,0.0</coordinates>
			</Point>
		</Placemark>
		<Placemark>
			<styleUrl>#icon-3</styleUrl>
			<name>DOOLITTLE (535 E 35th St)</name>
			<description><![CDATA[121 crimes nearby (in 2014)]]></description>
			<Point>
				<coordinates>-87.6122745425,41.8311206282,0.0</coordinates>
			</Point>
		</Placemark>
		<Placemark>
			<styleUrl>#icon-2</styleUrl>
			<name>DORE (6108 S Natoma Ave)</name>
			<description><![CDATA[56 crimes nearby (in 2014)]]></description>
			<Point>
				<coordinates>-87.7876044214,41.7809544634,0.0</coordinates>
			</Point>
		</Placemark>
		<Placemark>
			<styleUrl>#icon-4</styleUrl>
			<name>DOUGLASS HS (543 N Waller Ave)</name>
			<description><![CDATA[384 crimes nearby (in 2014)]]></description>
			<Point>
				<coordinates>-87.7676684561,41.8903686293,0.0</coordinates>
			</Point>
		</Placemark>
		<Placemark>
			<styleUrl>#icon-4</styleUrl>
			<name>DRAKE (2710 S Dearborn St)</name>
			<description><![CDATA[237 crimes nearby (in 2014)]]></description>
			<Point>
				<coordinates>-87.6285534468,41.8440433124,0.0</coordinates>
			</Point>
		</Placemark>
		<Placemark>
			<styleUrl>#icon-4</styleUrl>
			<name>DRUMMOND (1845 W Cortland St)</name>
			<description><![CDATA[220 crimes nearby (in 2014)]]></description>
			<Point>
				<coordinates>-87.6744945992,41.9159138013,0.0</coordinates>
			</Point>
		</Placemark>
		<Placemark>
			<styleUrl>#icon-4</styleUrl>
			<name>DUBOIS (330 E 133rd St)</name>
			<description><![CDATA[228 crimes nearby (in 2014)]]></description>
			<Point>
				<coordinates>-87.6143200102,41.6537329809,0.0</coordinates>
			</Point>
		</Placemark>
		<Placemark>
			<styleUrl>#icon-6</styleUrl>
			<name>DULLES (6311 S Calumet Ave)</name>
			<description><![CDATA[1094 crimes nearby (in 2014)]]></description>
			<Point>
				<coordinates>-87.6172141793,41.7799004932,0.0</coordinates>
			</Point>
		</Placemark>
		<Placemark>
			<styleUrl>#icon-3</styleUrl>
			<name>DUNBAR HS (3000 S King Dr)</name>
			<description><![CDATA[138 crimes nearby (in 2014)]]></description>
			<Point>
				<coordinates>-87.6176374351,41.8402255712,0.0</coordinates>
			</Point>
		</Placemark>
		<Placemark>
			<styleUrl>#icon-2</styleUrl>
			<name>DUNNE TECH ACAD (10845 S Union Ave)</name>
			<description><![CDATA[95 crimes nearby (in 2014)]]></description>
			<Point>
				<coordinates>-87.6399736047,41.6964961629,0.0</coordinates>
			</Point>
		</Placemark>
		<Placemark>
			<styleUrl>#icon-2</styleUrl>
			<name>DURKIN PARK (8445 S Kolin Ave)</name>
			<description><![CDATA[74 crimes nearby (in 2014)]]></description>
			<Point>
				<coordinates>-87.7299552926,41.7388439404,0.0</coordinates>
			</Point>
		</Placemark>
		<Placemark>
			<styleUrl>#icon-5</styleUrl>
			<name>DVORAK TECH ACAD (3615 W 16th St)</name>
			<description><![CDATA[515 crimes nearby (in 2014)]]></description>
			<Point>
				<coordinates>-87.7157435713,41.858883446,0.0</coordinates>
			</Point>
		</Placemark>
		<Placemark>
			<styleUrl>#icon-4</styleUrl>
			<name>DYETT HS (555 E 51st St)</name>
			<description><![CDATA[249 crimes nearby (in 2014)]]></description>
			<Point>
				<coordinates>-87.6119307284,41.8020772337,0.0</coordinates>
			</Point>
		</Placemark>
		<Placemark>
			<styleUrl>#icon-3</styleUrl>
			<name>EARHART (1710 E 93rd St)</name>
			<description><![CDATA[132 crimes nearby (in 2014)]]></description>
			<Point>
				<coordinates>-87.582181738,41.726107455,0.0</coordinates>
			</Point>
		</Placemark>
		<Placemark>
			<styleUrl>#icon-3</styleUrl>
			<name>EARLE (2040 W 62nd St)</name>
			<description><![CDATA[173 crimes nearby (in 2014)]]></description>
			<Point>
				<coordinates>-87.6755466606,41.7812251721,0.0</coordinates>
			</Point>
		</Placemark>
		<Placemark>
			<styleUrl>#icon-4</styleUrl>
			<name>EBERHART (3400 W 65th Pl)</name>
			<description><![CDATA[225 crimes nearby (in 2014)]]></description>
			<Point>
				<coordinates>-87.707952634,41.7744204514,0.0</coordinates>
			</Point>
		</Placemark>
		<Placemark>
			<styleUrl>#icon-1</styleUrl>
			<name>EBINGER (7350 W Pratt Ave)</name>
			<description><![CDATA[33 crimes nearby (in 2014)]]></description>
			<Point>
				<coordinates>-87.8111697846,42.0044079207,0.0</coordinates>
			</Point>
		</Placemark>
		<Placemark>
			<styleUrl>#icon-0</styleUrl>
			<name>EDGEBROOK (6525 N Hiawatha Ave)</name>
			<description><![CDATA[24 crimes nearby (in 2014)]]></description>
			<Point>
				<coordinates>-87.7618404749,41.9994368327,0.0</coordinates>
			</Point>
		</Placemark>
		<Placemark>
			<styleUrl>#icon-0</styleUrl>
			<name>EDISON PARK (6220 N Olcott Ave)</name>
			<description><![CDATA[25 crimes nearby (in 2014)]]></description>
			<Point>
				<coordinates>-87.8137712342,41.9942379492,0.0</coordinates>
			</Point>
		</Placemark>
		<Placemark>
			<styleUrl>#icon-3</styleUrl>
			<name>EDISON T (4929 N Sawyer Ave)</name>
			<description><![CDATA[136 crimes nearby (in 2014)]]></description>
			<Point>
				<coordinates>-87.709303666,41.971506096,0.0</coordinates>
			</Point>
		</Placemark>
		<Placemark>
			<styleUrl>#icon-3</styleUrl>
			<name>EDWARDS (4815 S Karlov Ave)</name>
			<description><![CDATA[196 crimes nearby (in 2014)]]></description>
			<Point>
				<coordinates>-87.7258561778,41.8055415392,0.0</coordinates>
			</Point>
		</Placemark>
		<Placemark>
			<styleUrl>#icon-5</styleUrl>
			<name>ELLINGTON (243 N Parkside Ave)</name>
			<description><![CDATA[416 crimes nearby (in 2014)]]></description>
			<Point>
				<coordinates>-87.7665893774,41.8855295797,0.0</coordinates>
			</Point>
		</Placemark>
		<Placemark>
			<styleUrl>#icon-4</styleUrl>
			<name>EPIC CHTR HS (8255 S Houston Ave)</name>
			<description><![CDATA[305 crimes nearby (in 2014)]]></description>
			<Point>
				<coordinates>-87.5502223699,41.7448491052,0.0</coordinates>
			</Point>
		</Placemark>
		<Placemark>
			<styleUrl>#icon-4</styleUrl>
			<name>ERICSON (3600 W 5th Ave)</name>
			<description><![CDATA[292 crimes nearby (in 2014)]]></description>
			<Point>
				<coordinates>-87.7158044313,41.8757441223,0.0</coordinates>
			</Point>
		</Placemark>
		<Placemark>
			<styleUrl>#icon-4</styleUrl>
			<name>ERIE CHTR (1405 N Washtenaw Ave)</name>
			<description><![CDATA[345 crimes nearby (in 2014)]]></description>
			<Point>
				<coordinates>-87.6943644455,41.9067706345,0.0</coordinates>
			</Point>
		</Placemark>
		<Placemark>
			<styleUrl>#icon-3</styleUrl>
			<name>ESMOND (1865 W Montvale Ave)</name>
			<description><![CDATA[128 crimes nearby (in 2014)]]></description>
			<Point>
				<coordinates>-87.6691586697,41.6894196058,0.0</coordinates>
			</Point>
		</Placemark>
		<Placemark>
			<styleUrl>#icon-3</styleUrl>
			<name>EVERETT (3419 S Bell Ave)</name>
			<description><![CDATA[183 crimes nearby (in 2014)]]></description>
			<Point>
				<coordinates>-87.681310304,41.8315551602,0.0</coordinates>
			</Point>
		</Placemark>
		<Placemark>
			<styleUrl>#icon-2</styleUrl>
			<name>EVERGREEN MS (3537 S Paulina St)</name>
			<description><![CDATA[99 crimes nearby (in 2014)]]></description>
			<Point>
				<coordinates>-87.6678165117,41.8293556184,0.0</coordinates>
			</Point>
		</Placemark>
		<Placemark>
			<styleUrl>#icon-4</styleUrl>
			<name>EVERS (9811 S Lowe Ave)</name>
			<description><![CDATA[217 crimes nearby (in 2014)]]></description>
			<Point>
				<coordinates>-87.6393054686,41.7156653572,0.0</coordinates>
			</Point>
		</Placemark>
		<Placemark>
			<styleUrl>#icon-4</styleUrl>
			<name>EXCEL ACADEMY  ENGLEWOOD HS (7141 S Morgan St)</name>
			<description><![CDATA[353 crimes nearby (in 2014)]]></description>
			<Point>
				<coordinates>-87.6491243465,41.763895973,0.0</coordinates>
			</Point>
		</Placemark>
		<Placemark>
			<styleUrl>#icon-3</styleUrl>
			<name>EXCEL ACADEMY  SOUTHWEST (8301 S DAMEN AVE)</name>
			<description><![CDATA[117 crimes nearby (in 2014)]]></description>
			<Point>
				<coordinates>-87.6728520573,41.7428907899,0.0</coordinates>
			</Point>
		</Placemark>
		<Placemark>
			<styleUrl>#icon-4</styleUrl>
			<name>EXCEL ACADEMY  WOODLAWN (6145 S. Ingleside)</name>
			<description><![CDATA[319 crimes nearby (in 2014)]]></description>
			<Point>
				<coordinates>-87.6026331704,41.7828921657,0.0</coordinates>
			</Point>
		</Placemark>
		<Placemark>
			<styleUrl>#icon-5</styleUrl>
			<name>FAIRFIELD (6201 S Fairfield Ave)</name>
			<description><![CDATA[481 crimes nearby (in 2014)]]></description>
			<Point>
				<coordinates>-87.6921150641,41.7809038977,0.0</coordinates>
			</Point>
		</Placemark>
		<Placemark>
			<styleUrl>#icon-4</styleUrl>
			<name>FALCONER (3020 N Lamon Ave)</name>
			<description><![CDATA[258 crimes nearby (in 2014)]]></description>
			<Point>
				<coordinates>-87.7493306251,41.9357845733,0.0</coordinates>
			</Point>
		</Placemark>
		<Placemark>
			<styleUrl>#icon-5</styleUrl>
			<name>FARADAY (3250 W Monroe St)</name>
			<description><![CDATA[615 crimes nearby (in 2014)]]></description>
			<Point>
				<coordinates>-87.7080920199,41.8797135906,0.0</coordinates>
			</Point>
		</Placemark>
		<Placemark>
			<styleUrl>#icon-3</styleUrl>
			<name>FARNSWORTH (5414 N Linder Ave)</name>
			<description><![CDATA[130 crimes nearby (in 2014)]]></description>
			<Point>
				<coordinates>-87.7660716577,41.9797900549,0.0</coordinates>
			</Point>
		</Placemark>
		<Placemark>
			<styleUrl>#icon-4</styleUrl>
			<name>FARRAGUT HS (2345 S Christiana Ave)</name>
			<description><![CDATA[273 crimes nearby (in 2014)]]></description>
			<Point>
				<coordinates>-87.7087056321,41.8485598741,0.0</coordinates>
			</Point>
		</Placemark>
		<Placemark>
			<styleUrl>#icon-4</styleUrl>
			<name>FENGER HS (11220 S Wallace St)</name>
			<description><![CDATA[249 crimes nearby (in 2014)]]></description>
			<Point>
				<coordinates>-87.6375720507,41.6899507244,0.0</coordinates>
			</Point>
		</Placemark>
		<Placemark>
			<styleUrl>#icon-4</styleUrl>
			<name>FERNWOOD (10041 S Union Ave)</name>
			<description><![CDATA[221 crimes nearby (in 2014)]]></description>
			<Point>
				<coordinates>-87.640413646,41.7111836217,0.0</coordinates>
			</Point>
		</Placemark>
		<Placemark>
			<styleUrl>#icon-4</styleUrl>
			<name>FIELD (7019 N Ashland Ave)</name>
			<description><![CDATA[266 crimes nearby (in 2014)]]></description>
			<Point>
				<coordinates>-87.6699854012,42.0096638543,0.0</coordinates>
			</Point>
		</Placemark>
		<Placemark>
			<styleUrl>#icon-3</styleUrl>
			<name>FINKL (2332 S Western Ave)</name>
			<description><![CDATA[114 crimes nearby (in 2014)]]></description>
			<Point>
				<coordinates>-87.6856678431,41.849214905,0.0</coordinates>
			</Point>
		</Placemark>
		<Placemark>
			<styleUrl>#icon-4</styleUrl>
			<name>FISKE (6020 S Langley Ave)</name>
			<description><![CDATA[322 crimes nearby (in 2014)]]></description>
			<Point>
				<coordinates>-87.6086328968,41.7851828158,0.0</coordinates>
			</Point>
		</Placemark>
		<Placemark>
			<styleUrl>#icon-4</styleUrl>
			<name>FORD CHTR HS (931 S Homan Ave)</name>
			<description><![CDATA[316 crimes nearby (in 2014)]]></description>
			<Point>
				<coordinates>-87.7103018762,41.8693184758,0.0</coordinates>
			</Point>
		</Placemark>
		<Placemark>
			<styleUrl>#icon-4</styleUrl>
			<name>FOREMAN HS (3235 N LeClaire Ave)</name>
			<description><![CDATA[312 crimes nearby (in 2014)]]></description>
			<Point>
				<coordinates>-87.7541665434,41.939796767,0.0</coordinates>
			</Point>
		</Placemark>
		<Placemark>
			<styleUrl>#icon-4</styleUrl>
			<name>FORT DEARBORN (9025 S Throop St)</name>
			<description><![CDATA[290 crimes nearby (in 2014)]]></description>
			<Point>
				<coordinates>-87.6554811604,41.7296726741,0.0</coordinates>
			</Point>
		</Placemark>
		<Placemark>
			<styleUrl>#icon-3</styleUrl>
			<name>FOSTER PARK (8530 S Wood St)</name>
			<description><![CDATA[184 crimes nearby (in 2014)]]></description>
			<Point>
				<coordinates>-87.6680993119,41.7384254769,0.0</coordinates>
			</Point>
		</Placemark>
		<Placemark>
			<styleUrl>#icon-3</styleUrl>
			<name>FOUNDATIONS CHTR (1233 W. 109th Street)</name>
			<description><![CDATA[178 crimes nearby (in 2014)]]></description>
			<Point>
				<coordinates>-87.6535521889,41.6957785766,0.0</coordinates>
			</Point>
		</Placemark>
		<Placemark>
			<styleUrl>#icon-4</styleUrl>
			<name>FRANKLIN (225 W Evergreen Ave)</name>
			<description><![CDATA[240 crimes nearby (in 2014)]]></description>
			<Point>
				<coordinates>-87.6355128103,41.9065999895,0.0</coordinates>
			</Point>
		</Placemark>
		<Placemark>
			<styleUrl>#icon-4</styleUrl>
			<name>FRAZIER CHTR (3711 W Douglas Blvd)</name>
			<description><![CDATA[304 crimes nearby (in 2014)]]></description>
			<Point>
				<coordinates>-87.7176419761,41.8620768633,0.0</coordinates>
			</Point>
		</Placemark>
		<Placemark>
			<styleUrl>#icon-4</styleUrl>
			<name>FRAZIER PROSPECTIVE (4027 W Grenshaw St)</name>
			<description><![CDATA[323 crimes nearby (in 2014)]]></description>
			<Point>
				<coordinates>-87.7272443786,41.8669796263,0.0</coordinates>
			</Point>
		</Placemark>
		<Placemark>
			<styleUrl>#icon-4</styleUrl>
			<name>FULLER (4214 S St Lawrence Ave)</name>
			<description><![CDATA[252 crimes nearby (in 2014)]]></description>
			<Point>
				<coordinates>-87.6117840427,41.8180034028,0.0</coordinates>
			</Point>
		</Placemark>
		<Placemark>
			<styleUrl>#icon-4</styleUrl>
			<name>FULTON (5300 S Hermitage Ave)</name>
			<description><![CDATA[265 crimes nearby (in 2014)]]></description>
			<Point>
				<coordinates>-87.6684358814,41.7975802702,0.0</coordinates>
			</Point>
		</Placemark>
		<Placemark>
			<styleUrl>#icon-4</styleUrl>
			<name>FUNSTON (2010 N Central Park Ave)</name>
			<description><![CDATA[342 crimes nearby (in 2014)]]></description>
			<Point>
				<coordinates>-87.7168916649,41.9176165135,0.0</coordinates>
			</Point>
		</Placemark>
		<Placemark>
			<styleUrl>#icon-4</styleUrl>
			<name>GAGE PARK HS (5630 S Rockwell St)</name>
			<description><![CDATA[230 crimes nearby (in 2014)]]></description>
			<Point>
				<coordinates>-87.6889539422,41.7910128383,0.0</coordinates>
			</Point>
		</Placemark>
		<Placemark>
			<styleUrl>#icon-5</styleUrl>
			<name>GALAPAGOS CHTR (3814 W Iowa St)</name>
			<description><![CDATA[655 crimes nearby (in 2014)]]></description>
			<Point>
				<coordinates>-87.7219590387,41.8973130241,0.0</coordinates>
			</Point>
		</Placemark>
		<Placemark>
			<styleUrl>#icon-5</styleUrl>
			<name>GALE (1631 W Jonquil Ter)</name>
			<description><![CDATA[630 crimes nearby (in 2014)]]></description>
			<Point>
				<coordinates>-87.6719389761,42.0210905572,0.0</coordinates>
			</Point>
		</Placemark>
		<Placemark>
			<styleUrl>#icon-3</styleUrl>
			<name>GALILEO (820 S Carpenter St)</name>
			<description><![CDATA[111 crimes nearby (in 2014)]]></description>
			<Point>
				<coordinates>-87.6533655527,41.8712548234,0.0</coordinates>
			</Point>
		</Placemark>
		<Placemark>
			<styleUrl>#icon-4</styleUrl>
			<name>GALLISTEL (10347 S Ewing Ave)</name>
			<description><![CDATA[217 crimes nearby (in 2014)]]></description>
			<Point>
				<coordinates>-87.5351753062,41.7068009989,0.0</coordinates>
			</Point>
		</Placemark>
		<Placemark>
			<styleUrl>#icon-4</styleUrl>
			<name>GARVEY (10309 S Morgan St)</name>
			<description><![CDATA[216 crimes nearby (in 2014)]]></description>
			<Point>
				<coordinates>-87.6475771653,41.7066028586,0.0</coordinates>
			</Point>
		</Placemark>
		<Placemark>
			<styleUrl>#icon-1</styleUrl>
			<name>GARVY (5225 N Oak Park Ave)</name>
			<description><![CDATA[49 crimes nearby (in 2014)]]></description>
			<Point>
				<coordinates>-87.7962351135,41.9763516632,0.0</coordinates>
			</Point>
		</Placemark>
		<Placemark>
			<styleUrl>#icon-3</styleUrl>
			<name>GARY (3740 W 31st St)</name>
			<description><![CDATA[150 crimes nearby (in 2014)]]></description>
			<Point>
				<coordinates>-87.7186966352,41.8370651512,0.0</coordinates>
			</Point>
		</Placemark>
		<Placemark>
			<styleUrl>#icon-3</styleUrl>
			<name>GEORGE WESTINGHOUSE HS (3223 W Franklin Blvd)</name>
			<description><![CDATA[114 crimes nearby (in 2014)]]></description>
			<Point>
				<coordinates>-87.7073323085,41.8899772027,0.0</coordinates>
			</Point>
		</Placemark>
		<Placemark>
			<styleUrl>#icon-4</styleUrl>
			<name>GILLESPIE (9301 S State St)</name>
			<description><![CDATA[277 crimes nearby (in 2014)]]></description>
			<Point>
				<coordinates>-87.6237194379,41.7253322786,0.0</coordinates>
			</Point>
		</Placemark>
		<Placemark>
			<styleUrl>#icon-3</styleUrl>
			<name>GLOBAL CITIZENSHIP CHTR (4647 W 47th St)</name>
			<description><![CDATA[136 crimes nearby (in 2014)]]></description>
			<Point>
				<coordinates>-87.7400974361,41.807578507,0.0</coordinates>
			</Point>
		</Placemark>
		<Placemark>
			<styleUrl>#icon-4</styleUrl>
			<name>GOETHE (2236 N Rockwell St)</name>
			<description><![CDATA[229 crimes nearby (in 2014)]]></description>
			<Point>
				<coordinates>-87.6928996958,41.9228310068,0.0</coordinates>
			</Point>
		</Placemark>
		<Placemark>
			<styleUrl>#icon-3</styleUrl>
			<name>GOODE ACAD HS (7651 S Homan Ave)</name>
			<description><![CDATA[105 crimes nearby (in 2014)]]></description>
			<Point>
				<coordinates>-87.7073453478,41.7537498019,0.0</coordinates>
			</Point>
		</Placemark>
		<Placemark>
			<styleUrl>#icon-5</styleUrl>
			<name>GOUDY (5120 N Winthrop Ave)</name>
			<description><![CDATA[552 crimes nearby (in 2014)]]></description>
			<Point>
				<coordinates>-87.6579124929,41.9758165297,0.0</coordinates>
			</Point>
		</Placemark>
		<Placemark>
			<styleUrl>#icon-3</styleUrl>
			<name>GRAHAM (4436 S Union Ave)</name>
			<description><![CDATA[148 crimes nearby (in 2014)]]></description>
			<Point>
				<coordinates>-87.6433442353,41.8133037286,0.0</coordinates>
			</Point>
		</Placemark>
		<Placemark>
			<styleUrl>#icon-3</styleUrl>
			<name>GRAHAMR HS (2347 S Wabash Ave)</name>
			<description><![CDATA[131 crimes nearby (in 2014)]]></description>
			<Point>
				<coordinates>-87.6253148158,41.8496754171,0.0</coordinates>
			</Point>
		</Placemark>
		<Placemark>
			<styleUrl>#icon-3</styleUrl>
			<name>GRAY W (3730 N Laramie Ave)</name>
			<description><![CDATA[131 crimes nearby (in 2014)]]></description>
			<Point>
				<coordinates>-87.7571155988,41.9487635787,0.0</coordinates>
			</Point>
		</Placemark>
		<Placemark>
			<styleUrl>#icon-4</styleUrl>
			<name>GREAT LAKES CHTR (8401 S Saginaw Ave)</name>
			<description><![CDATA[379 crimes nearby (in 2014)]]></description>
			<Point>
				<coordinates>-87.559906902,41.7426713812,0.0</coordinates>
			</Point>
		</Placemark>
		<Placemark>
			<styleUrl>#icon-0</styleUrl>
			<name>GREATER LAWNDALE HS (3120 S Kostner Ave)</name>
			<description><![CDATA[4 crimes nearby (in 2014)]]></description>
			<Point>
				<coordinates>-87.7352994692,41.8335072739,0.0</coordinates>
			</Point>
		</Placemark>
		<Placemark>
			<styleUrl>#icon-4</styleUrl>
			<name>GREELEY (832 W Sheridan Rd)</name>
			<description><![CDATA[353 crimes nearby (in 2014)]]></description>
			<Point>
				<coordinates>-87.6509798691,41.9528095114,0.0</coordinates>
			</Point>
		</Placemark>
		<Placemark>
			<styleUrl>#icon-3</styleUrl>
			<name>GREEN (1150 W 96th St)</name>
			<description><![CDATA[110 crimes nearby (in 2014)]]></description>
			<Point>
				<coordinates>-87.6525001397,41.7192919471,0.0</coordinates>
			</Point>
		</Placemark>
		<Placemark>
			<styleUrl>#icon-3</styleUrl>
			<name>GREENE (3525 S Honore St)</name>
			<description><![CDATA[131 crimes nearby (in 2014)]]></description>
			<Point>
				<coordinates>-87.6714923698,41.8296692808,0.0</coordinates>
			</Point>
		</Placemark>
		<Placemark>
			<styleUrl>#icon-5</styleUrl>
			<name>GREGORY (3715 W Polk St)</name>
			<description><![CDATA[691 crimes nearby (in 2014)]]></description>
			<Point>
				<coordinates>-87.7186661287,41.870742162,0.0</coordinates>
			</Point>
		</Placemark>
		<Placemark>
			<styleUrl>#icon-5</styleUrl>
			<name>GRESHAM (8524 S Green St)</name>
			<description><![CDATA[404 crimes nearby (in 2014)]]></description>
			<Point>
				<coordinates>-87.6450252379,41.7389201572,0.0</coordinates>
			</Point>
		</Placemark>
		<Placemark>
			<styleUrl>#icon-3</styleUrl>
			<name>GRIMES (5450 W 64th Pl)</name>
			<description><![CDATA[115 crimes nearby (in 2014)]]></description>
			<Point>
				<coordinates>-87.7588032937,41.7754642609,0.0</coordinates>
			</Point>
		</Placemark>
		<Placemark>
			<styleUrl>#icon-1</styleUrl>
			<name>GRISSOM (12810 S Escanaba Ave)</name>
			<description><![CDATA[46 crimes nearby (in 2014)]]></description>
			<Point>
				<coordinates>-87.5533067097,41.662480998,0.0</coordinates>
			</Point>
		</Placemark>
		<Placemark>
			<styleUrl>#icon-3</styleUrl>
			<name>GUNSAULUS (4420 S Sacramento Ave)</name>
			<description><![CDATA[154 crimes nearby (in 2014)]]></description>
			<Point>
				<coordinates>-87.6993641852,41.8130073694,0.0</coordinates>
			</Point>
		</Placemark>
		<Placemark>
			<styleUrl>#icon-4</styleUrl>
			<name>HAINES (247 W 23rd Pl)</name>
			<description><![CDATA[220 crimes nearby (in 2014)]]></description>
			<Point>
				<coordinates>-87.6338063315,41.8499583149,0.0</coordinates>
			</Point>
		</Placemark>
		<Placemark>
			<styleUrl>#icon-2</styleUrl>
			<name>HALE (6140 S Melvina Ave)</name>
			<description><![CDATA[71 crimes nearby (in 2014)]]></description>
			<Point>
				<coordinates>-87.7765787091,41.7801917314,0.0</coordinates>
			</Point>
		</Placemark>
		<Placemark>
			<styleUrl>#icon-4</styleUrl>
			<name>HALEY (11411 S Eggleston Ave)</name>
			<description><![CDATA[237 crimes nearby (in 2014)]]></description>
			<Point>
				<coordinates>-87.6336321364,41.6866599696,0.0</coordinates>
			</Point>
		</Placemark>
		<Placemark>
			<styleUrl>#icon-3</styleUrl>
			<name>HAMILTON (1650 W Cornelia Ave)</name>
			<description><![CDATA[178 crimes nearby (in 2014)]]></description>
			<Point>
				<coordinates>-87.6708653735,41.9452196537,0.0</coordinates>
			</Point>
		</Placemark>
		<Placemark>
			<styleUrl>#icon-4</styleUrl>
			<name>HAMLINE (4747 S Bishop St)</name>
			<description><![CDATA[222 crimes nearby (in 2014)]]></description>
			<Point>
				<coordinates>-87.6611746594,41.807241557,0.0</coordinates>
			</Point>
		</Placemark>
		<Placemark>
			<styleUrl>#icon-4</styleUrl>
			<name>HAMMOND (2819 W 21st Pl)</name>
			<description><![CDATA[206 crimes nearby (in 2014)]]></description>
			<Point>
				<coordinates>-87.6962433006,41.8527191339,0.0</coordinates>
			</Point>
		</Placemark>
		<Placemark>
			<styleUrl>#icon-3</styleUrl>
			<name>HAMPTON (3434 W 77th St)</name>
			<description><![CDATA[106 crimes nearby (in 2014)]]></description>
			<Point>
				<coordinates>-87.7087312849,41.7534571925,0.0</coordinates>
			</Point>
		</Placemark>
		<Placemark>
			<styleUrl>#icon-3</styleUrl>
			<name>HANCOCK HS (4034 W 56th St)</name>
			<description><![CDATA[182 crimes nearby (in 2014)]]></description>
			<Point>
				<coordinates>-87.7244704648,41.7914639084,0.0</coordinates>
			</Point>
		</Placemark>
		<Placemark>
			<styleUrl>#icon-3</styleUrl>
			<name>HANSON PARK (5411 W Fullerton Ave)</name>
			<description><![CDATA[192 crimes nearby (in 2014)]]></description>
			<Point>
				<coordinates>-87.761514771,41.9239552574,0.0</coordinates>
			</Point>
		</Placemark>
		<Placemark>
			<styleUrl>#icon-4</styleUrl>
			<name>HARLAN HS (9652 S Michigan Ave)</name>
			<description><![CDATA[258 crimes nearby (in 2014)]]></description>
			<Point>
				<coordinates>-87.6206234365,41.7183723454,0.0</coordinates>
			</Point>
		</Placemark>
		<Placemark>
			<styleUrl>#icon-4</styleUrl>
			<name>HARPER HS (6520 S Wood St)</name>
			<description><![CDATA[360 crimes nearby (in 2014)]]></description>
			<Point>
				<coordinates>-87.669089296,41.7751240831,0.0</coordinates>
			</Point>
		</Placemark>
		<Placemark>
			<styleUrl>#icon-4</styleUrl>
			<name>HARTE (1556 E 56th St)</name>
			<description><![CDATA[205 crimes nearby (in 2014)]]></description>
			<Point>
				<coordinates>-87.5868545968,41.7934472432,0.0</coordinates>
			</Point>
		</Placemark>
		<Placemark>
			<styleUrl>#icon-5</styleUrl>
			<name>HARVARD (7525 S Harvard)</name>
			<description><![CDATA[526 crimes nearby (in 2014)]]></description>
			<Point>
				<coordinates>-87.6327368738,41.7573405414,0.0</coordinates>
			</Point>
		</Placemark>
		<Placemark>
			<styleUrl>#icon-3</styleUrl>
			<name>HAUGAN (4540 N Hamlin Ave)</name>
			<description><![CDATA[124 crimes nearby (in 2014)]]></description>
			<Point>
				<coordinates>-87.7231280352,41.9640287086,0.0</coordinates>
			</Point>
		</Placemark>
		<Placemark>
			<styleUrl>#icon-5</styleUrl>
			<name>HAWTHORNE (3319 N Clifton Ave)</name>
			<description><![CDATA[478 crimes nearby (in 2014)]]></description>
			<Point>
				<coordinates>-87.6577088769,41.942275488,0.0</coordinates>
			</Point>
		</Placemark>
		<Placemark>
			<styleUrl>#icon-5</styleUrl>
			<name>HAY (1018 N Laramie Ave)</name>
			<description><![CDATA[499 crimes nearby (in 2014)]]></description>
			<Point>
				<coordinates>-87.7558132531,41.8991713551,0.0</coordinates>
			</Point>
		</Placemark>
		<Placemark>
			<styleUrl>#icon-3</styleUrl>
			<name>HAYT (1518 W Granville Ave)</name>
			<description><![CDATA[167 crimes nearby (in 2014)]]></description>
			<Point>
				<coordinates>-87.6685037745,41.9945408858,0.0</coordinates>
			</Point>
		</Placemark>
		<Placemark>
			<styleUrl>#icon-3</styleUrl>
			<name>HEALY (3010 S Parnell Ave)</name>
			<description><![CDATA[171 crimes nearby (in 2014)]]></description>
			<Point>
				<coordinates>-87.6403407501,41.8395948553,0.0</coordinates>
			</Point>
		</Placemark>
		<Placemark>
			<styleUrl>#icon-3</styleUrl>
			<name>HEARST (4640 S Lamon Ave)</name>
			<description><![CDATA[189 crimes nearby (in 2014)]]></description>
			<Point>
				<coordinates>-87.7457260572,41.8081749993,0.0</coordinates>
			</Point>
		</Placemark>
		<Placemark>
			<styleUrl>#icon-3</styleUrl>
			<name>HEDGES (4747 S Winchester Ave)</name>
			<description><![CDATA[199 crimes nearby (in 2014)]]></description>
			<Point>
				<coordinates>-87.6733272594,41.8071121311,0.0</coordinates>
			</Point>
		</Placemark>
		<Placemark>
			<styleUrl>#icon-6</styleUrl>
			<name>HEFFERAN (4409 W Wilcox St)</name>
			<description><![CDATA[1063 crimes nearby (in 2014)]]></description>
			<Point>
				<coordinates>-87.735801894,41.8786646463,0.0</coordinates>
			</Point>
		</Placemark>
		<Placemark>
			<styleUrl>#icon-4</styleUrl>
			<name>HENDERSON (5650 S Wolcott Ave)</name>
			<description><![CDATA[283 crimes nearby (in 2014)]]></description>
			<Point>
				<coordinates>-87.6718873069,41.7905912863,0.0</coordinates>
			</Point>
		</Placemark>
		<Placemark>
			<styleUrl>#icon-4</styleUrl>
			<name>HENDRICKS (4316 S Princeton Ave)</name>
			<description><![CDATA[260 crimes nearby (in 2014)]]></description>
			<Point>
				<coordinates>-87.633664477,41.815787751,0.0</coordinates>
			</Point>
		</Placemark>
		<Placemark>
			<styleUrl>#icon-4</styleUrl>
			<name>HENRY (4250 N Saint Louis Ave)</name>
			<description><![CDATA[226 crimes nearby (in 2014)]]></description>
			<Point>
				<coordinates>-87.7156323718,41.9589887967,0.0</coordinates>
			</Point>
		</Placemark>
		<Placemark>
			<styleUrl>#icon-2</styleUrl>
			<name>HERNANDEZ MS (3510 W 55th St)</name>
			<description><![CDATA[54 crimes nearby (in 2014)]]></description>
			<Point>
				<coordinates>-87.7113699217,41.7934793294,0.0</coordinates>
			</Point>
		</Placemark>
		<Placemark>
			<styleUrl>#icon-4</styleUrl>
			<name>HEROES (8344 S Commercial Ave)</name>
			<description><![CDATA[265 crimes nearby (in 2014)]]></description>
			<Point>
				<coordinates>-87.5518617191,41.7437530828,0.0</coordinates>
			</Point>
		</Placemark>
		<Placemark>
			<styleUrl>#icon-4</styleUrl>
			<name>HERZL (3711 W Douglas Blvd)</name>
			<description><![CDATA[245 crimes nearby (in 2014)]]></description>
			<Point>
				<coordinates>-87.718993854,41.8620812959,0.0</coordinates>
			</Point>
		</Placemark>
		<Placemark>
			<styleUrl>#icon-4</styleUrl>
			<name>HIBBARD (3244 W Ainslie St)</name>
			<description><![CDATA[254 crimes nearby (in 2014)]]></description>
			<Point>
				<coordinates>-87.7103616136,41.9703352343,0.0</coordinates>
			</Point>
		</Placemark>
		<Placemark>
			<styleUrl>#icon-3</styleUrl>
			<name>HIGGINS (11710 S Morgan St)</name>
			<description><![CDATA[180 crimes nearby (in 2014)]]></description>
			<Point>
				<coordinates>-87.6469940375,41.6810313697,0.0</coordinates>
			</Point>
		</Placemark>
		<Placemark>
			<styleUrl>#icon-4</styleUrl>
			<name>HIRSCH HS (7740 S Ingleside Ave)</name>
			<description><![CDATA[349 crimes nearby (in 2014)]]></description>
			<Point>
				<coordinates>-87.6017272659,41.7537479552,0.0</coordinates>
			</Point>
		</Placemark>
		<Placemark>
			<styleUrl>#icon-2</styleUrl>
			<name>HITCH (5625 N McVicker Ave)</name>
			<description><![CDATA[85 crimes nearby (in 2014)]]></description>
			<Point>
				<coordinates>-87.7791230522,41.9836716954,0.0</coordinates>
			</Point>
		</Placemark>
		<Placemark>
			<styleUrl>#icon-4</styleUrl>
			<name>HOLDEN (1104 W 31st St)</name>
			<description><![CDATA[221 crimes nearby (in 2014)]]></description>
			<Point>
				<coordinates>-87.6537916682,41.8380273873,0.0</coordinates>
			</Point>
		</Placemark>
		<Placemark>
			<styleUrl>#icon-4</styleUrl>
			<name>HOLMES (955 W Garfield Blvd)</name>
			<description><![CDATA[400 crimes nearby (in 2014)]]></description>
			<Point>
				<coordinates>-87.6497953559,41.7937876486,0.0</coordinates>
			</Point>
		</Placemark>
		<Placemark>
			<styleUrl>#icon-3</styleUrl>
			<name>HOPE CONTR ES (1628 W Washington)</name>
			<description><![CDATA[179 crimes nearby (in 2014)]]></description>
			<Point>
				<coordinates>-87.6680769459,41.8833620262,0.0</coordinates>
			</Point>
		</Placemark>
		<Placemark>
			<styleUrl>#icon-3</styleUrl>
			<name>HOPE PREP HS (5515 S Lowe Ave)</name>
			<description><![CDATA[191 crimes nearby (in 2014)]]></description>
			<Point>
				<coordinates>-87.6412441097,41.7935534666,0.0</coordinates>
			</Point>
		</Placemark>
		<Placemark>
			<styleUrl>#icon-5</styleUrl>
			<name>HOWE (720 N Lorel Ave)</name>
			<description><![CDATA[559 crimes nearby (in 2014)]]></description>
			<Point>
				<coordinates>-87.7593983848,41.8936122107,0.0</coordinates>
			</Point>
		</Placemark>
		<Placemark>
			<styleUrl>#icon-3</styleUrl>
			<name>HOYNE (8905 S Crandon Ave)</name>
			<description><![CDATA[133 crimes nearby (in 2014)]]></description>
			<Point>
				<coordinates>-87.5682281011,41.7333377517,0.0</coordinates>
			</Point>
		</Placemark>
		<Placemark>
			<styleUrl>#icon-3</styleUrl>
			<name>HSA CHTR  SW CHICAGO (5401 S. Western)</name>
			<description><![CDATA[116 crimes nearby (in 2014)]]></description>
			<Point>
				<coordinates>-87.6839633929,41.7952009525,0.0</coordinates>
			</Point>
		</Placemark>
		<Placemark>
			<styleUrl>#icon-4</styleUrl>
			<name>HUBBARD HS (6200 S Hamlin Ave)</name>
			<description><![CDATA[220 crimes nearby (in 2014)]]></description>
			<Point>
				<coordinates>-87.7180137434,41.7805263865,0.0</coordinates>
			</Point>
		</Placemark>
		<Placemark>
			<styleUrl>#icon-4</styleUrl>
			<name>HUGHES C (4247 W 15th St)</name>
			<description><![CDATA[364 crimes nearby (in 2014)]]></description>
			<Point>
				<coordinates>-87.731777387,41.8605177375,0.0</coordinates>
			</Point>
		</Placemark>
		<Placemark>
			<styleUrl>#icon-4</styleUrl>
			<name>HUGHES L (240 W 104th St)</name>
			<description><![CDATA[386 crimes nearby (in 2014)]]></description>
			<Point>
				<coordinates>-87.6298686592,41.7053423211,0.0</coordinates>
			</Point>
		</Placemark>
		<Placemark>
			<styleUrl>#icon-4</styleUrl>
			<name>HURLEY (3849 W 69th Pl)</name>
			<description><![CDATA[225 crimes nearby (in 2014)]]></description>
			<Point>
				<coordinates>-87.7195408323,41.7667852808,0.0</coordinates>
			</Point>
		</Placemark>
		<Placemark>
			<styleUrl>#icon-4</styleUrl>
			<name>HYDE PARK HS (6220 S Stony Island Ave)</name>
			<description><![CDATA[246 crimes nearby (in 2014)]]></description>
			<Point>
				<coordinates>-87.5866150102,41.7822569266,0.0</coordinates>
			</Point>
		</Placemark>
		<Placemark>
			<styleUrl>#icon-3</styleUrl>
			<name>INFINITY HS (3120 S Kostner Ave)</name>
			<description><![CDATA[122 crimes nearby (in 2014)]]></description>
			<Point>
				<coordinates>-87.7352779612,41.8361688181,0.0</coordinates>
			</Point>
		</Placemark>
		<Placemark>
			<styleUrl>#icon-0</styleUrl>
			<name>INSTITUTO CHTR  HEALTH SCIENCES (2520 S Western Ave)</name>
			<description><![CDATA[19 crimes nearby (in 2014)]]></description>
			<Point>
				<coordinates>-87.6872401586,41.8459665878,0.0</coordinates>
			</Point>
		</Placemark>
		<Placemark>
			<styleUrl>#icon-1</styleUrl>
			<name>INSTITUTO CHTR  JUSTICE  AND LEADERSHIP (2570 S Blue Island Ave)</name>
			<description><![CDATA[47 crimes nearby (in 2014)]]></description>
			<Point>
				<coordinates>-87.6840649381,41.8454460152,0.0</coordinates>
			</Point>
		</Placemark>
		<Placemark>
			<styleUrl>#icon-1</styleUrl>
			<name>INSTITUTO CHTR  RUDY LOZANO (2520 S Western Ave)</name>
			<description><![CDATA[36 crimes nearby (in 2014)]]></description>
			<Point>
				<coordinates>-87.685902611,41.8459566733,0.0</coordinates>
			</Point>
		</Placemark>
		<Placemark>
			<styleUrl>#icon-5</styleUrl>
			<name>INTERAMERICAN (851 W Waveland Ave)</name>
			<description><![CDATA[511 crimes nearby (in 2014)]]></description>
			<Point>
				<coordinates>-87.6515733418,41.9490032998,0.0</coordinates>
			</Point>
		</Placemark>
		<Placemark>
			<styleUrl>#icon-3</styleUrl>
			<name>INTRINSIC CHTR (4540 W Belmont Ave)</name>
			<description><![CDATA[173 crimes nearby (in 2014)]]></description>
			<Point>
				<coordinates>-87.7411286265,41.9389884279,0.0</coordinates>
			</Point>
		</Placemark>
		<Placemark>
			<styleUrl>#icon-4</styleUrl>
			<name>IRVING (749 S Oakley Blvd)</name>
			<description><![CDATA[210 crimes nearby (in 2014)]]></description>
			<Point>
				<coordinates>-87.6836156516,41.8715954911,0.0</coordinates>
			</Point>
		</Placemark>
		<Placemark>
			<styleUrl>#icon-2</styleUrl>
			<name>JACKSON A (1340 W Harrison St)</name>
			<description><![CDATA[97 crimes nearby (in 2014)]]></description>
			<Point>
				<coordinates>-87.660984672,41.8742996379,0.0</coordinates>
			</Point>
		</Placemark>
		<Placemark>
			<styleUrl>#icon-4</styleUrl>
			<name>JACKSON M (917 W 88th St)</name>
			<description><![CDATA[233 crimes nearby (in 2014)]]></description>
			<Point>
				<coordinates>-87.6467667342,41.7341254717,0.0</coordinates>
			</Point>
		</Placemark>
		<Placemark>
			<styleUrl>#icon-3</styleUrl>
			<name>JAHN (3149 N Wolcott Ave)</name>
			<description><![CDATA[130 crimes nearby (in 2014)]]></description>
			<Point>
				<coordinates>-87.6758097189,41.939247496,0.0</coordinates>
			</Point>
		</Placemark>
		<Placemark>
			<styleUrl>#icon-3</styleUrl>
			<name>JAMIESON (5650 N Mozart St)</name>
			<description><![CDATA[109 crimes nearby (in 2014)]]></description>
			<Point>
				<coordinates>-87.7005294202,41.9846407754,0.0</coordinates>
			</Point>
		</Placemark>
		<Placemark>
			<styleUrl>#icon-2</styleUrl>
			<name>JEFFERSON ALT HS (1100 S Hamilton Ave)</name>
			<description><![CDATA[100 crimes nearby (in 2014)]]></description>
			<Point>
				<coordinates>-87.6804175551,41.8678322848,0.0</coordinates>
			</Point>
		</Placemark>
		<Placemark>
			<styleUrl>#icon-4</styleUrl>
			<name>JENNER (1119 N Cleveland Ave)</name>
			<description><![CDATA[283 crimes nearby (in 2014)]]></description>
			<Point>
				<coordinates>-87.6410555598,41.9020548407,0.0</coordinates>
			</Point>
		</Placemark>
		<Placemark>
			<styleUrl>#icon-4</styleUrl>
			<name>JENSEN (3030 W Harrison St)</name>
			<description><![CDATA[383 crimes nearby (in 2014)]]></description>
			<Point>
				<coordinates>-87.7022410528,41.873814947,0.0</coordinates>
			</Point>
		</Placemark>
		<Placemark>
			<styleUrl>#icon-3</styleUrl>
			<name>JOHNSON (1420 S Albany Ave)</name>
			<description><![CDATA[195 crimes nearby (in 2014)]]></description>
			<Point>
				<coordinates>-87.7031387624,41.8618361912,0.0</coordinates>
			</Point>
		</Placemark>
		<Placemark>
			<styleUrl>#icon-5</styleUrl>
			<name>JONES HS (700 S State St)</name>
			<description><![CDATA[734 crimes nearby (in 2014)]]></description>
			<Point>
				<coordinates>-87.6276753225,41.8730659227,0.0</coordinates>
			</Point>
		</Placemark>
		<Placemark>
			<styleUrl>#icon-4</styleUrl>
			<name>JOPLIN (7931 S Honore St)</name>
			<description><![CDATA[378 crimes nearby (in 2014)]]></description>
			<Point>
				<coordinates>-87.6693656498,41.7493391609,0.0</coordinates>
			</Point>
		</Placemark>
		<Placemark>
			<styleUrl>#icon-4</styleUrl>
			<name>JORDAN (7414 N Wolcott Ave)</name>
			<description><![CDATA[354 crimes nearby (in 2014)]]></description>
			<Point>
				<coordinates>-87.6777625167,42.0170875907,0.0</coordinates>
			</Point>
		</Placemark>
		<Placemark>
			<styleUrl>#icon-2</styleUrl>
			<name>JUAREZ HS (2150 S Laflin St)</name>
			<description><![CDATA[76 crimes nearby (in 2014)]]></description>
			<Point>
				<coordinates>-87.6637324466,41.8526665992,0.0</coordinates>
			</Point>
		</Placemark>
		<Placemark>
			<styleUrl>#icon-3</styleUrl>
			<name>JULIAN HS (10330 S Elizabeth St)</name>
			<description><![CDATA[139 crimes nearby (in 2014)]]></description>
			<Point>
				<coordinates>-87.6537492111,41.7058589357,0.0</coordinates>
			</Point>
		</Placemark>
		<Placemark>
			<styleUrl>#icon-3</styleUrl>
			<name>JUNGMAN (1746 S Miller St)</name>
			<description><![CDATA[195 crimes nearby (in 2014)]]></description>
			<Point>
				<coordinates>-87.6523015944,41.8580647762,0.0</coordinates>
			</Point>
		</Placemark>
		<Placemark>
			<styleUrl>#icon-4</styleUrl>
			<name>KANOON (2233 S Kedzie Ave)</name>
			<description><![CDATA[357 crimes nearby (in 2014)]]></description>
			<Point>
				<coordinates>-87.7051120774,41.850771483,0.0</coordinates>
			</Point>
		</Placemark>
		<Placemark>
			<styleUrl>#icon-1</styleUrl>
			<name>KELLER (3020 W 108th St)</name>
			<description><![CDATA[42 crimes nearby (in 2014)]]></description>
			<Point>
				<coordinates>-87.6972783365,41.6971703336,0.0</coordinates>
			</Point>
		</Placemark>
		<Placemark>
			<styleUrl>#icon-4</styleUrl>
			<name>KELLMAN (3030 W Arthington St)</name>
			<description><![CDATA[253 crimes nearby (in 2014)]]></description>
			<Point>
				<coordinates>-87.7021629045,41.8701677166,0.0</coordinates>
			</Point>
		</Placemark>
		<Placemark>
			<styleUrl>#icon-1</styleUrl>
			<name>KELLOGG (9241 S Leavitt St)</name>
			<description><![CDATA[41 crimes nearby (in 2014)]]></description>
			<Point>
				<coordinates>-87.6772325066,41.7252634388,0.0</coordinates>
			</Point>
		</Placemark>
		<Placemark>
			<styleUrl>#icon-4</styleUrl>
			<name>KELLY HS (4136 S California Ave)</name>
			<description><![CDATA[238 crimes nearby (in 2014)]]></description>
			<Point>
				<coordinates>-87.6946386599,41.8187290632,0.0</coordinates>
			</Point>
		</Placemark>
		<Placemark>
			<styleUrl>#icon-4</styleUrl>
			<name>KELVYN PARK HS (4343 W Wrightwood Ave)</name>
			<description><![CDATA[225 crimes nearby (in 2014)]]></description>
			<Point>
				<coordinates>-87.735998822,41.9279184024,0.0</coordinates>
			</Point>
		</Placemark>
		<Placemark>
			<styleUrl>#icon-2</styleUrl>
			<name>KENNEDY HS (6325 W 56th St)</name>
			<description><![CDATA[69 crimes nearby (in 2014)]]></description>
			<Point>
				<coordinates>-87.7808397556,41.7899612516,0.0</coordinates>
			</Point>
		</Placemark>
		<Placemark>
			<styleUrl>#icon-4</styleUrl>
			<name>KENWOOD HS (5015 S Blackstone Ave)</name>
			<description><![CDATA[217 crimes nearby (in 2014)]]></description>
			<Point>
				<coordinates>-87.5904208897,41.8037721186,0.0</coordinates>
			</Point>
		</Placemark>
		<Placemark>
			<styleUrl>#icon-5</styleUrl>
			<name>KERSHAW (6450 S Lowe Ave)</name>
			<description><![CDATA[410 crimes nearby (in 2014)]]></description>
			<Point>
				<coordinates>-87.6408920253,41.7764528097,0.0</coordinates>
			</Point>
		</Placemark>
		<Placemark>
			<styleUrl>#icon-3</styleUrl>
			<name>KILMER (6700 N Greenview Ave)</name>
			<description><![CDATA[179 crimes nearby (in 2014)]]></description>
			<Point>
				<coordinates>-87.6682224667,42.0036404619,0.0</coordinates>
			</Point>
		</Placemark>
		<Placemark>
			<styleUrl>#icon-5</styleUrl>
			<name>KING (644 W 71st St)</name>
			<description><![CDATA[440 crimes nearby (in 2014)]]></description>
			<Point>
				<coordinates>-87.6413345402,41.765334979,0.0</coordinates>
			</Point>
		</Placemark>
		<Placemark>
			<styleUrl>#icon-4</styleUrl>
			<name>KING HS (4445 S Drexel Blvd)</name>
			<description><![CDATA[286 crimes nearby (in 2014)]]></description>
			<Point>
				<coordinates>-87.6038738615,41.813675452,0.0</coordinates>
			</Point>
		</Placemark>
		<Placemark>
			<styleUrl>#icon-1</styleUrl>
			<name>KINZIE (5625 S Mobile Ave)</name>
			<description><![CDATA[38 crimes nearby (in 2014)]]></description>
			<Point>
				<coordinates>-87.7794826001,41.7899646339,0.0</coordinates>
			</Point>
		</Placemark>
		<Placemark>
			<styleUrl>#icon-4</styleUrl>
			<name>KIPLING (9351 S Lowe Ave)</name>
			<description><![CDATA[228 crimes nearby (in 2014)]]></description>
			<Point>
				<coordinates>-87.6395207214,41.7236269051,0.0</coordinates>
			</Point>
		</Placemark>
		<Placemark>
			<styleUrl>#icon-4</styleUrl>
			<name>KIPP CHTR  ASCEND (1616 S Avers Ave)</name>
			<description><![CDATA[255 crimes nearby (in 2014)]]></description>
			<Point>
				<coordinates>-87.7210706467,41.8583697431,0.0</coordinates>
			</Point>
		</Placemark>
		<Placemark>
			<styleUrl>#icon-4</styleUrl>
			<name>KIPP CHTR  ASCEND PRIMARY (1440 S. Christiana)</name>
			<description><![CDATA[318 crimes nearby (in 2014)]]></description>
			<Point>
				<coordinates>-87.7092868303,41.8611741881,0.0</coordinates>
			</Point>
		</Placemark>
		<Placemark>
			<styleUrl>#icon-0</styleUrl>
			<name>KIPP CHTR  BLOOM (5515 S Lowe Ave)</name>
			<description><![CDATA[24 crimes nearby (in 2014)]]></description>
			<Point>
				<coordinates>-87.6399673312,41.793556267,0.0</coordinates>
			</Point>
		</Placemark>
		<Placemark>
			<styleUrl>#icon-4</styleUrl>
			<name>KIPP CHTR  CREATE (4837 W Erie St)</name>
			<description><![CDATA[356 crimes nearby (in 2014)]]></description>
			<Point>
				<coordinates>-87.746613839,41.891816142,0.0</coordinates>
			</Point>
		</Placemark>
		<Placemark>
			<styleUrl>#icon-4</styleUrl>
			<name>KOZMINSKI (936 E 54th St)</name>
			<description><![CDATA[268 crimes nearby (in 2014)]]></description>
			<Point>
				<coordinates>-87.6024814476,41.7980018771,0.0</coordinates>
			</Point>
		</Placemark>
		<Placemark>
			<styleUrl>#icon-3</styleUrl>
			<name>LAKE VIEW HS (4015 N Ashland Ave)</name>
			<description><![CDATA[190 crimes nearby (in 2014)]]></description>
			<Point>
				<coordinates>-87.6689526896,41.9547640669,0.0</coordinates>
			</Point>
		</Placemark>
		<Placemark>
			<styleUrl>#icon-3</styleUrl>
			<name>LANE HS (2501 W Addison St)</name>
			<description><![CDATA[119 crimes nearby (in 2014)]]></description>
			<Point>
				<coordinates>-87.6910126273,41.9466445737,0.0</coordinates>
			</Point>
		</Placemark>
		<Placemark>
			<styleUrl>#icon-4</styleUrl>
			<name>LANGFORD (6010 S Throop St)</name>
			<description><![CDATA[379 crimes nearby (in 2014)]]></description>
			<Point>
				<coordinates>-87.6571692056,41.7846808606,0.0</coordinates>
			</Point>
		</Placemark>
		<Placemark>
			<styleUrl>#icon-3</styleUrl>
			<name>LARA (4619 S Wolcott Ave)</name>
			<description><![CDATA[187 crimes nearby (in 2014)]]></description>
			<Point>
				<coordinates>-87.6721815932,41.8097702963,0.0</coordinates>
			</Point>
		</Placemark>
		<Placemark>
			<styleUrl>#icon-5</styleUrl>
			<name>LASALLE (1734 N Orleans St)</name>
			<description><![CDATA[409 crimes nearby (in 2014)]]></description>
			<Point>
				<coordinates>-87.6375648638,41.913899532,0.0</coordinates>
			</Point>
		</Placemark>
		<Placemark>
			<styleUrl>#icon-4</styleUrl>
			<name>LASALLE II (1148 N Honore St)</name>
			<description><![CDATA[327 crimes nearby (in 2014)]]></description>
			<Point>
				<coordinates>-87.6736960316,41.9029144566,0.0</coordinates>
			</Point>
		</Placemark>
		<Placemark>
			<styleUrl>#icon-4</styleUrl>
			<name>LAVIZZO (138 W 109th St)</name>
			<description><![CDATA[373 crimes nearby (in 2014)]]></description>
			<Point>
				<coordinates>-87.627147688,41.6962623467,0.0</coordinates>
			</Point>
		</Placemark>
		<Placemark>
			<styleUrl>#icon-4</styleUrl>
			<name>LAWNDALE (3500 W Douglas Blvd)</name>
			<description><![CDATA[331 crimes nearby (in 2014)]]></description>
			<Point>
				<coordinates>-87.7129567869,41.8629600239,0.0</coordinates>
			</Point>
		</Placemark>
		<Placemark>
			<styleUrl>#icon-4</styleUrl>
			<name>LEARN CHRT  SOUTH CHICAGO (8914 S Buffalo Ave)</name>
			<description><![CDATA[278 crimes nearby (in 2014)]]></description>
			<Point>
				<coordinates>-87.5455798925,41.7333331322,0.0</coordinates>
			</Point>
		</Placemark>
		<Placemark>
			<styleUrl>#icon-4</styleUrl>
			<name>LEARN CHTR  BUTLER (1132 S Homan Ave)</name>
			<description><![CDATA[330 crimes nearby (in 2014)]]></description>
			<Point>
				<coordinates>-87.7106794802,41.8672727133,0.0</coordinates>
			</Point>
		</Placemark>
		<Placemark>
			<styleUrl>#icon-5</styleUrl>
			<name>LEARN CHTR  CAMPBELL (212 S Francisco Ave)</name>
			<description><![CDATA[475 crimes nearby (in 2014)]]></description>
			<Point>
				<coordinates>-87.6987387202,41.8778606307,0.0</coordinates>
			</Point>
		</Placemark>
		<Placemark>
			<styleUrl>#icon-2</styleUrl>
			<name>LEARN CHTR  EXCEL (2401 W Congress Pkwy)</name>
			<description><![CDATA[83 crimes nearby (in 2014)]]></description>
			<Point>
				<coordinates>-87.6865683709,41.8746871403,0.0</coordinates>
			</Point>
		</Placemark>
		<Placemark>
			<styleUrl>#icon-4</styleUrl>
			<name>LEARN CHTR  HUNTER PERKINS (1700 W 83rd St)</name>
			<description><![CDATA[259 crimes nearby (in 2014)]]></description>
			<Point>
				<coordinates>-87.665721055,41.7431217695,0.0</coordinates>
			</Point>
		</Placemark>
		<Placemark>
			<styleUrl>#icon-2</styleUrl>
			<name>LEARN CHTR 7 (3021 W Carroll Ave)</name>
			<description><![CDATA[91 crimes nearby (in 2014)]]></description>
			<Point>
				<coordinates>-87.7013973499,41.8874102842,0.0</coordinates>
			</Point>
		</Placemark>
		<Placemark>
			<styleUrl>#icon-1</styleUrl>
			<name>LEARN CHTR MIDDLE SCHOOL (3021 W Carroll Ave)</name>
			<description><![CDATA[38 crimes nearby (in 2014)]]></description>
			<Point>
				<coordinates>-87.7027038987,41.8874127024,0.0</coordinates>
			</Point>
		</Placemark>
		<Placemark>
			<styleUrl>#icon-3</styleUrl>
			<name>LEE (6448 S Tripp Ave)</name>
			<description><![CDATA[130 crimes nearby (in 2014)]]></description>
			<Point>
				<coordinates>-87.7288842925,41.7753053867,0.0</coordinates>
			</Point>
		</Placemark>
		<Placemark>
			<styleUrl>#icon-4</styleUrl>
			<name>LEGACY CHTR (4217 W 18th St)</name>
			<description><![CDATA[222 crimes nearby (in 2014)]]></description>
			<Point>
				<coordinates>-87.7303481482,41.8568591577,0.0</coordinates>
			</Point>
		</Placemark>
		<Placemark>
			<styleUrl>#icon-2</styleUrl>
			<name>LEGAL PREP CHTR ACADEMY (1901 W Carroll Ave)</name>
			<description><![CDATA[68 crimes nearby (in 2014)]]></description>
			<Point>
				<coordinates>-87.6744436516,41.8876304377,0.0</coordinates>
			</Point>
		</Placemark>
		<Placemark>
			<styleUrl>#icon-5</styleUrl>
			<name>LELAND (512 S Lavergne Ave)</name>
			<description><![CDATA[636 crimes nearby (in 2014)]]></description>
			<Point>
				<coordinates>-87.7492755544,41.8735867797,0.0</coordinates>
			</Point>
		</Placemark>
		<Placemark>
			<styleUrl>#icon-3</styleUrl>
			<name>LENART (8101 S LaSalle St)</name>
			<description><![CDATA[157 crimes nearby (in 2014)]]></description>
			<Point>
				<coordinates>-87.628040363,41.7471859176,0.0</coordinates>
			</Point>
		</Placemark>
		<Placemark>
			<styleUrl>#icon-4</styleUrl>
			<name>LEWIS (1431 N Leamington Ave)</name>
			<description><![CDATA[306 crimes nearby (in 2014)]]></description>
			<Point>
				<coordinates>-87.7545499505,41.9068260496,0.0</coordinates>
			</Point>
		</Placemark>
		<Placemark>
			<styleUrl>#icon-4</styleUrl>
			<name>LIBBY (5300 S Loomis Blvd)</name>
			<description><![CDATA[249 crimes nearby (in 2014)]]></description>
			<Point>
				<coordinates>-87.6599328174,41.7976848317,0.0</coordinates>
			</Point>
		</Placemark>
		<Placemark>
			<styleUrl>#icon-4</styleUrl>
			<name>LINCOLN (615 W Kemper Pl)</name>
			<description><![CDATA[386 crimes nearby (in 2014)]]></description>
			<Point>
				<coordinates>-87.6444973036,41.9245248156,0.0</coordinates>
			</Point>
		</Placemark>
		<Placemark>
			<styleUrl>#icon-4</styleUrl>
			<name>LINCOLN PARK HS (2001 N Orchard St)</name>
			<description><![CDATA[242 crimes nearby (in 2014)]]></description>
			<Point>
				<coordinates>-87.6460093598,41.9182683107,0.0</coordinates>
			</Point>
		</Placemark>
		<Placemark>
			<styleUrl>#icon-4</styleUrl>
			<name>LINDBLOM HS (6130 S Wolcott Ave)</name>
			<description><![CDATA[280 crimes nearby (in 2014)]]></description>
			<Point>
				<coordinates>-87.6716618501,41.7820408025,0.0</coordinates>
			</Point>
		</Placemark>
		<Placemark>
			<styleUrl>#icon-3</styleUrl>
			<name>LITTLE BLACK PEARL ACADEMY HS (1060 E 47th St)</name>
			<description><![CDATA[193 crimes nearby (in 2014)]]></description>
			<Point>
				<coordinates>-87.5993399405,41.8096954956,0.0</coordinates>
			</Point>
		</Placemark>
		<Placemark>
			<styleUrl>#icon-4</styleUrl>
			<name>LITTLE VILLAGE (2620 S Lawndale Ave)</name>
			<description><![CDATA[221 crimes nearby (in 2014)]]></description>
			<Point>
				<coordinates>-87.7173189528,41.8436981177,0.0</coordinates>
			</Point>
		</Placemark>
		<Placemark>
			<styleUrl>#icon-4</styleUrl>
			<name>LLOYD (2103 N Lamon Ave)</name>
			<description><![CDATA[286 crimes nearby (in 2014)]]></description>
			<Point>
				<coordinates>-87.7485150133,41.9188140954,0.0</coordinates>
			</Point>
		</Placemark>
		<Placemark>
			<styleUrl>#icon-4</styleUrl>
			<name>LOCKE A CHTR (3141 W Jackson Blvd)</name>
			<description><![CDATA[242 crimes nearby (in 2014)]]></description>
			<Point>
				<coordinates>-87.7052345263,41.8772483521,0.0</coordinates>
			</Point>
		</Placemark>
		<Placemark>
			<styleUrl>#icon-3</styleUrl>
			<name>LOCKE J (2828 N Oak Park Ave)</name>
			<description><![CDATA[105 crimes nearby (in 2014)]]></description>
			<Point>
				<coordinates>-87.7956040707,41.9317623536,0.0</coordinates>
			</Point>
		</Placemark>
		<Placemark>
			<styleUrl>#icon-4</styleUrl>
			<name>LOGANDALE MS (3212 W George St)</name>
			<description><![CDATA[302 crimes nearby (in 2014)]]></description>
			<Point>
				<coordinates>-87.7080408766,41.9339701952,0.0</coordinates>
			</Point>
		</Placemark>
		<Placemark>
			<styleUrl>#icon-3</styleUrl>
			<name>LORCA (3231 N Springfield Ave)</name>
			<description><![CDATA[174 crimes nearby (in 2014)]]></description>
			<Point>
				<coordinates>-87.7247831232,41.9400259128,0.0</coordinates>
			</Point>
		</Placemark>
		<Placemark>
			<styleUrl>#icon-3</styleUrl>
			<name>LOVETT (6333 W Bloomingdale Ave)</name>
			<description><![CDATA[135 crimes nearby (in 2014)]]></description>
			<Point>
				<coordinates>-87.7839188472,41.9127180263,0.0</coordinates>
			</Point>
		</Placemark>
		<Placemark>
			<styleUrl>#icon-4</styleUrl>
			<name>LOWELL (3320 W Hirsch St)</name>
			<description><![CDATA[290 crimes nearby (in 2014)]]></description>
			<Point>
				<coordinates>-87.7102170022,41.9065195907,0.0</coordinates>
			</Point>
		</Placemark>
		<Placemark>
			<styleUrl>#icon-3</styleUrl>
			<name>LOZANO (1501 N Greenview Ave)</name>
			<description><![CDATA[179 crimes nearby (in 2014)]]></description>
			<Point>
				<coordinates>-87.6650932725,41.9088861271,0.0</coordinates>
			</Point>
		</Placemark>
		<Placemark>
			<styleUrl>#icon-3</styleUrl>
			<name>LYON (2941 N McVicker Ave)</name>
			<description><![CDATA[156 crimes nearby (in 2014)]]></description>
			<Point>
				<coordinates>-87.7771741985,41.9341921621,0.0</coordinates>
			</Point>
		</Placemark>
		<Placemark>
			<styleUrl>#icon-3</styleUrl>
			<name>MADERO (3202 W 28th St)</name>
			<description><![CDATA[103 crimes nearby (in 2014)]]></description>
			<Point>
				<coordinates>-87.7050642603,41.8409569109,0.0</coordinates>
			</Point>
		</Placemark>
		<Placemark>
			<styleUrl>#icon-5</styleUrl>
			<name>MADISON (7433 S Dorchester Ave)</name>
			<description><![CDATA[454 crimes nearby (in 2014)]]></description>
			<Point>
				<coordinates>-87.5907123955,41.7595480596,0.0</coordinates>
			</Point>
		</Placemark>
		<Placemark>
			<styleUrl>#icon-4</styleUrl>
			<name>MAGIC JOHNSON  CHATHAM (214 W. 83rd Street)</name>
			<description><![CDATA[387 crimes nearby (in 2014)]]></description>
			<Point>
				<coordinates>-87.6297199346,41.74362762,0.0</coordinates>
			</Point>
		</Placemark>
		<Placemark>
			<styleUrl>#icon-3</styleUrl>
			<name>MAGIC JOHNSON ACADEMY HUMBOLDT PK HS (2421 W. Division)</name>
			<description><![CDATA[112 crimes nearby (in 2014)]]></description>
			<Point>
				<coordinates>-87.6878889935,41.9029250315,0.0</coordinates>
			</Point>
		</Placemark>
		<Placemark>
			<styleUrl>#icon-4</styleUrl>
			<name>MAGIC JOHNSON ACADEMY NORTH LAWNDALE HS (3222 W Roosevelt Rd)</name>
			<description><![CDATA[365 crimes nearby (in 2014)]]></description>
			<Point>
				<coordinates>-87.7066036763,41.8664778506,0.0</coordinates>
			</Point>
		</Placemark>
		<Placemark>
			<styleUrl>#icon-3</styleUrl>
			<name>MAGIC JOHNSON ACADEMY ROSELAND HS (10928 S. Halsted Ave)</name>
			<description><![CDATA[139 crimes nearby (in 2014)]]></description>
			<Point>
				<coordinates>-87.6426969685,41.6951598389,0.0</coordinates>
			</Point>
		</Placemark>
		<Placemark>
			<styleUrl>#icon-5</styleUrl>
			<name>MAGIC JOHNSON ACADEMYENGLEWOOD HS (845 W. 69th Street)</name>
			<description><![CDATA[526 crimes nearby (in 2014)]]></description>
			<Point>
				<coordinates>-87.6462839759,41.7687290901,0.0</coordinates>
			</Point>
		</Placemark>